X,Y,OBJECTID,LATITUDE,LONGITUDE,NAME,STATION_TYPE,STATION_ID,STATION_STATUS,LAST_REPORTED,NUM_DOCKS_AVAILABLE,NUM_DOCKS_DISABLED,NUM_BIKES_AVAILABLE,NUM_EBIKES_AVAILABLE,NUM_BIKES_DISABLED,IS_INSTALLED,IS_RETURNING,IS_RENTING,HAS_KIOSK,IOS,ANDROID,ELECTRIC_BIKE_SURCHARGE_WAIVER,EIGHTD_HAS_KEY_DISPENSER,CAPACITY,RENTAL_METHODS,REGION_ID,GIS_LAST_MOD_DTTM,GIS_ID,REGION_NAME
-77.0477898660708,38.818757328518,28141966,38.818748,-77.047783,Powhatan St & Bashford Ln,classic,416,active,2022/04/05 10:29:28+00,7,0,8,1,0,Yes,Yes,Yes,Yes,https://dc.lft.to/lastmile_qr_scan,https://dc.lft.to/lastmile_qr_scan,No,No,15,"CREDITCARD,KEY",40,2022/04/05 13:12:44+00,,"Alexandria, VA"
-77.0478431565184,38.8295494609216,28141967,38.829545,-77.047844,Potomac Ave & Swann Ave,classic,417,active,2022/04/05 06:59:15+00,17,0,2,0,0,Yes,Yes,Yes,Yes,https://dc.lft.to/lastmile_qr_scan,https://dc.lft.to/lastmile_qr_scan,No,No,19,"CREDITCARD,KEY",40,2022/04/05 13:12:44+00,,"Alexandria, VA"
-77.0322249628347,38.9285570569183,28141968,38.928552,-77.032224,14th & Irving St NW,classic,418,active,2022/04/05 12:50:22+00,12,0,19,0,0,Yes,Yes,Yes,Yes,https://dc.lft.to/lastmile_qr_scan,https://dc.lft.to/lastmile_qr_scan,No,No,31,"CREDITCARD,KEY",42,2022/04/05 13:12:44+00,,"Washington, DC"
-77.0344490840428,38.9011440542281,28141969,38.901136,-77.034451,Vermont Ave & I St NW,classic,419,active,2022/04/05 10:20:48+00,8,0,17,2,0,Yes,Yes,Yes,Yes,https://dc.lft.to/lastmile_qr_scan,https://dc.lft.to/lastmile_qr_scan,No,No,25,"CREDITCARD,KEY",42,2022/04/05 13:12:44+00,,"Washington, DC"
-77.0802138584383,38.9498205807519,28141970,38.949813,-77.080217,Wisconsin Ave & Brandywine St NW,classic,420,active,2022/04/05 05:56:02+00,25,0,0,0,0,Yes,Yes,Yes,Yes,https://dc.lft.to/lastmile_qr_scan,https://dc.lft.to/lastmile_qr_scan,No,No,25,"CREDITCARD,KEY",42,2022/04/05 13:12:44+00,,"Washington, DC"
-76.9719261535664,38.9126404152723,28141971,38.91263,-76.971923,24th & R St NE / National Arboretum,classic,421,active,2022/04/05 08:06:02+00,10,0,7,0,0,Yes,Yes,Yes,Yes,https://dc.lft.to/lastmile_qr_scan,https://dc.lft.to/lastmile_qr_scan,No,No,19,"CREDITCARD,KEY",42,2022/04/05 13:12:44+00,,"Washington, DC"
-76.9259132505353,38.8974141975119,28141972,38.897407,-76.925907,Division Ave & Foote St NE,classic,422,active,2022/04/05 04:23:07+00,11,0,4,0,0,Yes,Yes,Yes,Yes,https://dc.lft.to/lastmile_qr_scan,https://dc.lft.to/lastmile_qr_scan,No,No,15,"CREDITCARD,KEY",42,2022/04/05 13:12:44+00,,"Washington, DC"
-76.9823598613978,38.8706994686156,28141973,38.870695,-76.982359,16th & Q St SE / Anacostia HS,classic,423,active,2022/04/05 04:23:07+00,22,0,0,0,1,Yes,Yes,Yes,Yes,https://dc.lft.to/lastmile_qr_scan,https://dc.lft.to/lastmile_qr_scan,No,No,23,"CREDITCARD,KEY",42,2022/04/05 13:12:44+00,,"Washington, DC"
-77.2406601546871,38.9292685972545,28141974,38.929261,-77.240654,Spring Hill Metro,classic,424,active,2022/04/05 04:23:07+00,9,0,6,0,0,Yes,Yes,Yes,Yes,https://dc.lft.to/lastmile_qr_scan,https://dc.lft.to/lastmile_qr_scan,No,No,15,"CREDITCARD,KEY",104,2022/04/05 13:12:44+00,,"Fairfax, VA"
-77.2359604523307,38.9240353227432,28141975,38.92403,-77.235955,Westpark Dr & Leesburg Pike,classic,425,active,2022/04/05 04:58:49+00,9,0,2,0,0,Yes,Yes,Yes,Yes,https://dc.lft.to/lastmile_qr_scan,https://dc.lft.to/lastmile_qr_scan,No,No,11,"CREDITCARD,KEY",104,2022/04/05 13:12:44+00,,"Fairfax, VA"
-77.2211852099411,38.9194789711864,28141976,38.919475,-77.221179,Tysons One Pl & Chain Bridge Rd,classic,427,active,2022/04/05 04:23:07+00,8,0,3,1,0,Yes,Yes,Yes,Yes,https://dc.lft.to/lastmile_qr_scan,https://dc.lft.to/lastmile_qr_scan,No,No,11,"CREDITCARD,KEY",104,2022/04/05 13:12:44+00,,"Fairfax, VA"
-77.2221122880063,38.9209455743846,28141977,38.920939,-77.222115,Tysons Corner Station,classic,428,active,2022/04/05 07:48:29+00,1,0,10,0,0,Yes,Yes,Yes,Yes,https://dc.lft.to/lastmile_qr_scan,https://dc.lft.to/lastmile_qr_scan,No,No,11,"CREDITCARD,KEY",104,2022/04/05 13:12:44+00,,"Fairfax, VA"
-77.2176717790151,38.9244491693927,28141978,38.924437,-77.217664,Westpark & Jones Branch Dr,classic,429,active,2022/04/05 04:23:10+00,9,0,2,0,0,Yes,Yes,Yes,Yes,https://dc.lft.to/lastmile_qr_scan,https://dc.lft.to/lastmile_qr_scan,No,No,11,"CREDITCARD,KEY",104,2022/04/05 13:12:44+00,,"Fairfax, VA"
-77.2192631367085,38.9319231164161,28141979,38.931911,-77.219261,Jones Branch & Westbranch Dr,classic,430,active,2022/04/05 04:23:10+00,9,0,4,0,0,Yes,Yes,Yes,Yes,https://dc.lft.to/lastmile_qr_scan,https://dc.lft.to/lastmile_qr_scan,No,No,13,"CREDITCARD,KEY",104,2022/04/05 13:12:44+00,,"Fairfax, VA"
-77.225400970999,38.9289296807527,28141980,38.928919,-77.225394,Westpark & Park Run Dr,classic,431,active,2022/04/05 04:23:07+00,10,0,1,0,0,Yes,Yes,Yes,Yes,https://dc.lft.to/lastmile_qr_scan,https://dc.lft.to/lastmile_qr_scan,No,No,11,"CREDITCARD,KEY",104,2022/04/05 13:12:44+00,,"Fairfax, VA"
-77.2318253524573,38.9326465659651,28141981,38.932636,-77.231825,Tysons West Transit Center,classic,432,active,2022/04/05 04:23:09+00,7,0,4,1,0,Yes,Yes,Yes,Yes,https://dc.lft.to/lastmile_qr_scan,https://dc.lft.to/lastmile_qr_scan,No,No,11,"CREDITCARD,KEY",104,2022/04/05 13:12:44+00,,"Fairfax, VA"
-77.3386881790362,38.9700496019126,28141982,38.970046,-77.338686,North Shore & Cameron Crescent Dr/Crescent Apartments,classic,433,active,2022/04/05 04:23:08+00,3,0,8,0,0,Yes,Yes,Yes,Yes,https://dc.lft.to/lastmile_qr_scan,https://dc.lft.to/lastmile_qr_scan,No,No,11,"CREDITCARD,KEY",104,2022/04/05 13:12:44+00,,"Fairfax, VA"
-77.3619023103047,38.9625301839679,28141983,38.962524,-77.361902,Town Center Pkwy & Bowman Towne Dr,classic,434,active,2022/04/05 04:23:09+00,1,0,14,0,0,Yes,Yes,Yes,Yes,https://dc.lft.to/lastmile_qr_scan,https://dc.lft.to/lastmile_qr_scan,No,No,15,"CREDITCARD,KEY",104,2022/04/05 13:12:44+00,,"Fairfax, VA"
-77.3588193832047,38.962098277498,28141984,38.962095,-77.358815,Reston Regional Library,classic,435,active,2022/04/05 04:23:10+00,13,0,2,0,0,Yes,Yes,Yes,Yes,https://dc.lft.to/lastmile_qr_scan,https://dc.lft.to/lastmile_qr_scan,No,No,15,"CREDITCARD,KEY",104,2022/04/05 13:12:44+00,,"Fairfax, VA"
-77.3563310691994,38.9605834802193,28142625,38.960574,-77.356324,New Dominion Pkwy & Fountain Dr,classic,436,active,2022/04/05 04:28:08+00,13,0,2,0,0,Yes,Yes,Yes,Yes,https://dc.lft.to/lastmile_qr_scan,https://dc.lft.to/lastmile_qr_scan,No,No,15,"CREDITCARD,KEY",104,2022/04/05 13:12:44+00,,"Fairfax, VA"
-77.3516540911385,38.9550845425896,28142626,38.955079,-77.351649,Sunset Hills & Old Reston Ave,classic,437,active,2022/04/05 04:28:07+00,11,0,4,0,0,Yes,Yes,Yes,Yes,https://dc.lft.to/lastmile_qr_scan,https://dc.lft.to/lastmile_qr_scan,No,No,15,"CREDITCARD,KEY",104,2022/04/05 13:12:44+00,,"Fairfax, VA"
-77.359716928836,38.9570418469793,28142627,38.957037,-77.359718,Reston Town Center Transit Station,classic,438,active,2022/04/05 04:28:09+00,13,0,4,0,0,Yes,Yes,Yes,Yes,https://dc.lft.to/lastmile_qr_scan,https://dc.lft.to/lastmile_qr_scan,No,No,17,"CREDITCARD,KEY",104,2022/04/05 13:12:44+00,,"Fairfax, VA"
-77.0059726260136,38.8849249041764,28142628,38.884916,-77.005965,1st & D St SE,classic,439,active,2022/04/05 10:59:35+00,5,0,14,0,0,Yes,Yes,Yes,Yes,https://dc.lft.to/lastmile_qr_scan,https://dc.lft.to/lastmile_qr_scan,No,No,19,"CREDITCARD,KEY",42,2022/04/05 13:12:44+00,,"Washington, DC"
-77.3393958910249,38.9466169000994,28142629,38.946608,-77.339391,Wiehle Ave & Reston Station Blvd,classic,440,active,2022/04/05 06:41:15+00,5,0,14,0,0,Yes,Yes,Yes,Yes,https://dc.lft.to/lastmile_qr_scan,https://dc.lft.to/lastmile_qr_scan,No,No,19,"CREDITCARD,KEY",104,2022/04/05 13:12:44+00,,"Fairfax, VA"
-77.3587377759011,38.9596392547559,28142630,38.959633,-77.358741,Library St & Freedom Dr,classic,441,active,2022/04/05 04:58:56+00,15,0,4,0,0,Yes,Yes,Yes,Yes,https://dc.lft.to/lastmile_qr_scan,https://dc.lft.to/lastmile_qr_scan,No,No,19,"CREDITCARD,KEY",104,2022/04/05 13:12:44+00,,"Fairfax, VA"
-77.3576085922496,38.955345739437,28142631,38.95534,-77.357611,Sunset Hills Rd & Discovery Square,classic,442,active,2022/04/05 08:26:26+00,14,0,1,0,0,Yes,Yes,Yes,Yes,https://dc.lft.to/lastmile_qr_scan,https://dc.lft.to/lastmile_qr_scan,No,No,15,"CREDITCARD,KEY",104,2022/04/05 13:12:44+00,,"Fairfax, VA"
-77.0489458190931,38.8924458058939,28142632,38.892441,-77.048947,22nd St & Constitution Ave NW,classic,443,active,2022/04/05 11:01:49+00,16,0,7,1,0,Yes,Yes,Yes,Yes,https://dc.lft.to/lastmile_qr_scan,https://dc.lft.to/lastmile_qr_scan,No,No,23,"CREDITCARD,KEY",42,2022/04/05 13:12:44+00,,"Washington, DC"
-76.9135622569639,38.8918115122125,28142633,38.891805,-76.913563,61st St & Banks Pl NE,classic,444,active,2022/04/05 09:58:50+00,0,0,18,1,0,Yes,Yes,Yes,Yes,https://dc.lft.to/lastmile_qr_scan,https://dc.lft.to/lastmile_qr_scan,No,No,19,"CREDITCARD,KEY",42,2022/04/05 13:12:44+00,,"Washington, DC"
-77.3534210149589,38.9600878463549,28142634,38.960084,-77.353414,Temporary Rd & Old Reston Ave,classic,445,active,2022/04/05 07:06:33+00,12,0,3,0,0,Yes,Yes,Yes,Yes,https://dc.lft.to/lastmile_qr_scan,https://dc.lft.to/lastmile_qr_scan,No,No,15,"CREDITCARD,KEY",104,2022/04/05 13:12:44+00,,"Fairfax, VA"
-77.3684188570006,38.9553211824459,28142635,38.955314,-77.368416,Reston YMCA,classic,446,active,2022/04/05 04:28:10+00,6,0,9,0,0,Yes,Yes,Yes,Yes,https://dc.lft.to/lastmile_qr_scan,https://dc.lft.to/lastmile_qr_scan,No,No,15,"CREDITCARD,KEY",104,2022/04/05 13:12:44+00,,"Fairfax, VA"
-77.3403764477456,38.9514515279823,28142636,38.951443,-77.340377,Sunset Hills Rd & Isaac Newton Square,classic,447,active,2022/04/05 08:18:13+00,2,0,9,0,0,Yes,Yes,Yes,Yes,https://dc.lft.to/lastmile_qr_scan,https://dc.lft.to/lastmile_qr_scan,No,No,11,"CREDITCARD,KEY",104,2022/04/05 13:12:44+00,,"Fairfax, VA"
-77.0708600138901,38.893866898986,28142637,38.89386,-77.070862,N Lynn St & Fairfax Dr,classic,448,active,2022/04/05 13:04:34+00,3,0,12,1,0,Yes,Yes,Yes,Yes,https://dc.lft.to/lastmile_qr_scan,https://dc.lft.to/lastmile_qr_scan,No,No,15,"CREDITCARD,KEY",41,2022/04/05 13:12:44+00,,"Arlington, VA"
-77.0279731044829,38.9675099541956,28142638,38.967505,-77.027976,Georgia Ave & Piney Branch Rd NW,classic,449,active,2022/04/05 04:28:09+00,7,0,8,0,0,Yes,Yes,Yes,Yes,https://dc.lft.to/lastmile_qr_scan,https://dc.lft.to/lastmile_qr_scan,No,No,15,"CREDITCARD,KEY",42,2022/04/05 13:12:44+00,,"Washington, DC"
-77.227423664959,38.9230883544184,28142639,38.923083,-77.227417,Greensboro & International Dr,classic,450,active,2022/04/05 04:28:09+00,10,0,1,0,0,Yes,Yes,Yes,Yes,https://dc.lft.to/lastmile_qr_scan,https://dc.lft.to/lastmile_qr_scan,No,No,11,"CREDITCARD,KEY",104,2022/04/05 13:12:44+00,,"Fairfax, VA"
-77.0406929272645,38.8123549846507,28142640,38.812351,-77.040691,Madison St & Fairfax St,classic,451,active,2022/04/05 09:21:44+00,10,0,5,0,0,Yes,Yes,Yes,Yes,https://dc.lft.to/lastmile_qr_scan,https://dc.lft.to/lastmile_qr_scan,No,No,15,"CREDITCARD,KEY",40,2022/04/05 13:12:44+00,,"Alexandria, VA"
-77.0163124080319,38.9908794954639,28142641,38.990874,-77.016311,Sligo Ave & Carroll Ln,classic,452,active,2022/04/05 04:43:11+00,12,0,3,0,0,Yes,Yes,Yes,Yes,https://dc.lft.to/lastmile_qr_scan,https://dc.lft.to/lastmile_qr_scan,No,No,15,"CREDITCARD,KEY",44,2022/04/05 13:12:44+00,,"Montgomery County, MD (South)"
-77.0344461910136,38.9190256188872,28142642,38.919019,-77.034449,15th & W St NW,classic,453,active,2022/04/05 13:00:07+00,15,0,1,0,1,Yes,Yes,Yes,Yes,https://dc.lft.to/lastmile_qr_scan,https://dc.lft.to/lastmile_qr_scan,No,No,19,"CREDITCARD,KEY",42,2022/04/05 13:12:44+00,,"Washington, DC"
-76.9901250433515,38.8824923754259,28142643,38.882489,-76.990121,12th St & Pennsylvania Ave SE,classic,454,active,2022/04/05 13:10:03+00,9,0,10,1,0,Yes,Yes,Yes,Yes,https://dc.lft.to/lastmile_qr_scan,https://dc.lft.to/lastmile_qr_scan,No,No,19,"CREDITCARD,KEY",42,2022/04/05 13:12:44+00,,"Washington, DC"
-77.0022405601344,38.9574690756916,28142644,38.957463,-77.002239,3rd St & Riggs Rd NE,classic,455,active,2022/04/05 04:28:08+00,4,0,11,0,0,Yes,Yes,Yes,Yes,https://dc.lft.to/lastmile_qr_scan,https://dc.lft.to/lastmile_qr_scan,No,No,15,"CREDITCARD,KEY",42,2022/04/05 13:12:44+00,,"Washington, DC"
-77.1129878317399,38.8766997877076,28142645,38.876695,-77.112982,Carlin Springs Rd & N Thomas St,classic,456,active,2022/04/05 04:43:11+00,12,0,2,0,1,Yes,Yes,Yes,Yes,https://dc.lft.to/lastmile_qr_scan,https://dc.lft.to/lastmile_qr_scan,No,No,15,"CREDITCARD,KEY",41,2022/04/05 13:12:44+00,,"Arlington, VA"
-77.2201574117395,38.9152559921775,28142646,38.915246,-77.220157,Towers Crescent Dr & Tysons One Pl,classic,457,active,2022/04/05 04:28:10+00,4,0,7,0,0,Yes,Yes,Yes,Yes,https://dc.lft.to/lastmile_qr_scan,https://dc.lft.to/lastmile_qr_scan,No,No,11,"CREDITCARD,KEY",104,2022/04/05 13:12:44+00,,"Fairfax, VA"
-76.9984113271735,38.9029417862031,28142647,38.902932,-76.998405,6th & K St NE,classic,458,active,2022/04/05 09:17:35+00,10,0,9,1,0,Yes,Yes,Yes,Yes,https://dc.lft.to/lastmile_qr_scan,https://dc.lft.to/lastmile_qr_scan,No,No,19,"CREDITCARD,KEY",42,2022/04/05 13:12:44+00,,"Washington, DC"
-77.1071447477926,39.0147212704552,28142648,39.014716,-77.107143,Pooks Hill Rd & Linden Ave,classic,459,active,2022/04/05 04:58:50+00,8,0,7,0,0,Yes,Yes,Yes,Yes,https://dc.lft.to/lastmile_qr_scan,https://dc.lft.to/lastmile_qr_scan,No,No,15,"CREDITCARD,KEY",44,2022/04/05 13:12:44+00,,"Montgomery County, MD (South)"
-76.9883106796684,38.9826555535497,28142649,38.98265,-76.988311,Takoma Park Rec Center,classic,460,active,2022/04/05 04:28:09+00,4,0,11,0,0,Yes,Yes,Yes,Yes,https://dc.lft.to/lastmile_qr_scan,https://dc.lft.to/lastmile_qr_scan,No,No,15,"CREDITCARD,KEY",44,2022/04/05 13:12:44+00,,"Montgomery County, MD (South)"
-76.9884252101572,38.9881055335589,28142650,38.988101,-76.988422,New Hampshire & Kirklynn Ave,classic,461,active,2022/04/05 04:28:10+00,7,0,8,0,0,Yes,Yes,Yes,Yes,https://dc.lft.to/lastmile_qr_scan,https://dc.lft.to/lastmile_qr_scan,No,No,15,"CREDITCARD,KEY",44,2022/04/05 13:12:44+00,,"Montgomery County, MD (South)"
-77.0510213420152,39.0384325815611,28142651,39.038424,-77.05102,Wheaton Metro / Georgia Ave & Reedie Dr,classic,462,active,2022/04/05 04:28:09+00,16,0,3,0,0,Yes,Yes,Yes,Yes,https://dc.lft.to/lastmile_qr_scan,https://dc.lft.to/lastmile_qr_scan,No,No,19,"CREDITCARD,KEY",44,2022/04/05 13:12:44+00,,"Montgomery County, MD (South)"
-77.0477915073535,39.0448927564387,28142652,39.044887,-77.047788,Amherst Ave & Elkins St,classic,463,active,2022/04/05 04:28:08+00,6,0,9,0,0,Yes,Yes,Yes,Yes,https://dc.lft.to/lastmile_qr_scan,https://dc.lft.to/lastmile_qr_scan,No,No,15,"CREDITCARD,KEY",44,2022/04/05 13:12:44+00,,"Montgomery County, MD (South)"
-77.0483976819208,39.0359744805863,28142653,39.035965,-77.048395,Amherst Ave & Prichard Rd,classic,464,active,2022/04/05 04:28:09+00,7,0,8,0,0,Yes,Yes,Yes,Yes,https://dc.lft.to/lastmile_qr_scan,https://dc.lft.to/lastmile_qr_scan,No,No,15,"CREDITCARD,KEY",44,2022/04/05 13:12:44+00,,"Montgomery County, MD (South)"
-77.053092515253,39.0432780221514,28142654,39.043272,-77.053085,Grandview & Blueridge Ave,classic,465,active,2022/04/05 04:28:10+00,6,0,9,0,0,Yes,Yes,Yes,Yes,https://dc.lft.to/lastmile_qr_scan,https://dc.lft.to/lastmile_qr_scan,No,No,15,"CREDITCARD,KEY",44,2022/04/05 13:12:44+00,,"Montgomery County, MD (South)"
-77.0473555445358,39.0320383581521,28142655,39.032029,-77.04735,Windham Ln & Amherst Ave,classic,466,active,2022/04/05 04:28:11+00,3,0,12,0,0,Yes,Yes,Yes,Yes,https://dc.lft.to/lastmile_qr_scan,https://dc.lft.to/lastmile_qr_scan,No,No,15,"CREDITCARD,KEY",44,2022/04/05 13:12:44+00,,"Montgomery County, MD (South)"
-77.3407901675923,38.9704218437984,28142656,38.970412,-77.340787,North Shore Dr & Village Rd,classic,467,active,2022/04/05 04:28:10+00,3,0,8,0,0,Yes,Yes,Yes,Yes,https://dc.lft.to/lastmile_qr_scan,https://dc.lft.to/lastmile_qr_scan,No,No,11,"CREDITCARD,KEY",104,2022/04/05 13:12:44+00,,"Fairfax, VA"
-77.3630994503967,38.9551756737624,28142657,38.955171,-77.363094,Town Center Pkwy & Sunset Hills Rd,classic,468,active,2022/04/05 04:33:08+00,10,0,1,0,0,Yes,Yes,Yes,Yes,https://dc.lft.to/lastmile_qr_scan,https://dc.lft.to/lastmile_qr_scan,No,No,11,"CREDITCARD,KEY",104,2022/04/05 13:12:44+00,,"Fairfax, VA"
-77.1887077221266,38.9001048918593,28142658,38.9001,-77.1887,West Falls Church Metro,classic,581,active,2022/04/05 04:59:02+00,18,0,1,0,0,Yes,Yes,Yes,Yes,https://dc.lft.to/lastmile_qr_scan,https://dc.lft.to/lastmile_qr_scan,No,No,19,"CREDITCARD,KEY",104,2022/04/05 13:12:44+00,,"Fairfax, VA"
-77.2156313205246,38.9285067059609,28142659,38.928502,-77.215624,Jones Branch Drive & Scotts Crossing Rd,classic,582,active,2022/04/05 04:38:10+00,6,0,5,0,0,Yes,Yes,Yes,Yes,https://dc.lft.to/lastmile_qr_scan,https://dc.lft.to/lastmile_qr_scan,No,No,11,"CREDITCARD,KEY",104,2022/04/05 13:12:44+00,,"Fairfax, VA"
-77.0235073362982,38.9321354348697,28142660,38.932128,-77.0235,Georgia Ave & Morton St NW,classic,583,active,2022/04/05 08:26:35+00,17,0,0,0,0,Yes,Yes,Yes,Yes,https://dc.lft.to/lastmile_qr_scan,https://dc.lft.to/lastmile_qr_scan,No,No,19,"CREDITCARD,KEY",42,2022/04/05 13:12:44+00,,"Washington, DC"
-77.2306841506613,38.8793642622583,28142661,38.879355,-77.230681,Merrilee Dr & Lauren Elizabeth Lane,classic,584,active,2022/04/05 04:58:53+00,7,0,4,1,0,Yes,Yes,Yes,Yes,https://dc.lft.to/lastmile_qr_scan,https://dc.lft.to/lastmile_qr_scan,No,No,11,"CREDITCARD,KEY",104,2022/04/05 13:12:44+00,,"Fairfax, VA"
-77.2299743393621,38.8701049973848,28142662,38.870093,-77.22997,Merrifield Cinema & Merrifield Town Center,classic,585,active,2022/04/05 04:58:53+00,3,0,8,3,0,Yes,Yes,Yes,Yes,https://dc.lft.to/lastmile_qr_scan,https://dc.lft.to/lastmile_qr_scan,No,No,11,"CREDITCARD,KEY",104,2022/04/05 13:12:44+00,,"Fairfax, VA"
-76.985898496112,38.9243087241831,28142663,38.9243,-76.9859,Rhode Island & Montana Ave NE,classic,586,active,2022/04/05 07:44:53+00,13,0,6,0,0,Yes,Yes,Yes,Yes,https://dc.lft.to/lastmile_qr_scan,https://dc.lft.to/lastmile_qr_scan,No,No,19,"CREDITCARD,KEY",42,2022/04/05 13:12:44+00,,"Washington, DC"
-77.0221754206007,38.914209133619,28142664,38.914204,-77.022175,7th & S St NW,classic,587,active,2022/04/05 08:09:21+00,17,0,0,0,2,Yes,Yes,Yes,Yes,https://dc.lft.to/lastmile_qr_scan,https://dc.lft.to/lastmile_qr_scan,No,No,19,"CREDITCARD,KEY",42,2022/04/05 13:12:44+00,,"Washington, DC"
-77.0087998431921,38.9125353557681,28142665,38.912524,-77.008798,North Capitol & R St NE,classic,588,active,2022/04/05 11:35:20+00,14,0,1,0,0,Yes,Yes,Yes,Yes,https://dc.lft.to/lastmile_qr_scan,https://dc.lft.to/lastmile_qr_scan,No,No,15,"CREDITCARD,KEY",42,2022/04/05 13:12:44+00,,"Washington, DC"
-77.0386907181957,38.9421576316462,28142666,38.942146,-77.038684,17th & Upshur St NW,classic,589,active,2022/04/05 08:57:11+00,15,0,4,0,0,Yes,Yes,Yes,Yes,https://dc.lft.to/lastmile_qr_scan,https://dc.lft.to/lastmile_qr_scan,No,No,19,"CREDITCARD,KEY",42,2022/04/05 13:12:44+00,,"Washington, DC"
-77.0182275745385,38.9420364979323,28142667,38.942025,-77.018221,Grant Circle,classic,590,active,2022/04/05 04:58:53+00,19,0,0,0,0,Yes,Yes,Yes,Yes,https://dc.lft.to/lastmile_qr_scan,https://dc.lft.to/lastmile_qr_scan,No,No,19,"CREDITCARD,KEY",42,2022/04/05 13:12:44+00,,"Washington, DC"
-77.0326889597728,38.9344123287107,28142668,38.934405,-77.032687,14th & Otis Pl NW,classic,591,active,2022/04/05 10:09:12+00,19,0,8,0,0,Yes,Yes,Yes,Yes,https://dc.lft.to/lastmile_qr_scan,https://dc.lft.to/lastmile_qr_scan,No,No,27,"CREDITCARD,KEY",42,2022/04/05 13:12:44+00,,"Washington, DC"
-76.997234009712,38.9388939925463,28142669,38.938889,-76.997226,John McCormack Rd NE,classic,592,active,2022/04/05 04:59:02+00,19,0,0,0,0,Yes,Yes,Yes,Yes,https://dc.lft.to/lastmile_qr_scan,https://dc.lft.to/lastmile_qr_scan,No,No,19,"CREDITCARD,KEY",42,2022/04/05 13:12:44+00,,"Washington, DC"
-76.9680905342868,38.9553568093059,28142670,38.955349,-76.968084,West Hyattsville Metro,classic,593,active,2022/04/05 04:58:53+00,12,0,5,0,0,Yes,Yes,Yes,Yes,https://dc.lft.to/lastmile_qr_scan,https://dc.lft.to/lastmile_qr_scan,No,No,17,"CREDITCARD,KEY",133,2022/04/05 13:12:44+00,,Prince George's County
-76.9131858603952,38.8885321827324,28142671,38.888524,-76.913188,Capitol Heights Metro,classic,594,active,2022/04/05 10:12:49+00,14,0,5,1,0,Yes,Yes,Yes,Yes,https://dc.lft.to/lastmile_qr_scan,https://dc.lft.to/lastmile_qr_scan,No,No,19,"CREDITCARD,KEY",133,2022/04/05 13:12:44+00,,Prince George's County
-76.954804687107,38.9657479590938,28142672,38.965742,-76.954803,Prince George's Plaza Metro,classic,595,active,2022/04/05 13:09:27+00,16,0,1,0,0,Yes,Yes,Yes,Yes,https://dc.lft.to/lastmile_qr_scan,https://dc.lft.to/lastmile_qr_scan,No,No,17,"CREDITCARD,KEY",133,2022/04/05 13:12:44+00,,Prince George's County
-76.9355842652197,38.9621266412299,28142673,38.962119,-76.935578,Riverdale Park Town Center,classic,596,active,2022/04/05 04:58:55+00,16,0,1,0,0,Yes,Yes,Yes,Yes,https://dc.lft.to/lastmile_qr_scan,https://dc.lft.to/lastmile_qr_scan,No,No,17,"CREDITCARD,KEY",133,2022/04/05 13:12:44+00,,Prince George's County
-76.9541680587669,38.9688465481524,28142674,38.968842,-76.954171,The Mall at Prince Georges,classic,597,active,2022/04/05 11:40:37+00,13,1,3,0,0,Yes,Yes,Yes,Yes,https://dc.lft.to/lastmile_qr_scan,https://dc.lft.to/lastmile_qr_scan,No,No,17,"CREDITCARD,KEY",133,2022/04/05 13:12:44+00,,Prince George's County
-77.0510970335839,39.0473325544279,28142675,39.047323,-77.051097,Wheaton Library & Community Rec Center,classic,598,active,2022/04/05 04:59:01+00,9,0,1,1,1,Yes,Yes,Yes,Yes,https://dc.lft.to/lastmile_qr_scan,https://dc.lft.to/lastmile_qr_scan,No,No,11,"CREDITCARD,KEY",44,2022/04/05 13:12:44+00,,"Montgomery County, MD (South)"
-77.0021011270108,38.9241474060241,28142676,38.924144,-77.002098,Edgewood Rec Center,classic,599,active,2022/04/05 09:20:07+00,9,0,4,0,1,Yes,Yes,Yes,Yes,https://dc.lft.to/lastmile_qr_scan,https://dc.lft.to/lastmile_qr_scan,No,No,15,"CREDITCARD,KEY",42,2022/04/05 13:12:44+00,,"Washington, DC"
-76.9951487268695,38.9027435125132,28142677,38.902732,-76.99515,8th & K St NE,classic,601,active,2022/04/05 10:33:05+00,9,0,6,0,0,Yes,Yes,Yes,Yes,https://dc.lft.to/lastmile_qr_scan,https://dc.lft.to/lastmile_qr_scan,No,No,15,"CREDITCARD,KEY",42,2022/04/05 13:12:44+00,,"Washington, DC"
-76.9678519649046,38.8959649024429,28142678,38.895955,-76.967845,Kingman Island/The Fields at RFK,classic,602,active,2022/04/05 08:09:58+00,17,0,2,0,0,Yes,Yes,Yes,Yes,https://dc.lft.to/lastmile_qr_scan,https://dc.lft.to/lastmile_qr_scan,No,No,19,"CREDITCARD,KEY",42,2022/04/05 13:12:44+00,,"Washington, DC"
-76.9472950179328,38.9004796358479,28142679,38.900468,-76.947287,Kenilworth Terrace & Hayes St. NE,classic,603,active,2022/04/05 12:00:44+00,12,0,7,0,0,Yes,Yes,Yes,Yes,https://dc.lft.to/lastmile_qr_scan,https://dc.lft.to/lastmile_qr_scan,No,No,19,"CREDITCARD,KEY",42,2022/04/05 13:12:44+00,,"Washington, DC"
-77.0167029781023,38.7859119027289,28142680,38.7859,-77.0167,National Harbor Carousel,classic,604,active,2022/04/05 12:45:29+00,3,0,12,0,0,Yes,Yes,Yes,Yes,https://dc.lft.to/lastmile_qr_scan,https://dc.lft.to/lastmile_qr_scan,No,No,15,"CREDITCARD,KEY",133,2022/04/05 13:12:44+00,,Prince George's County
-76.9935867716407,38.8366577602497,28142681,38.836646,-76.993589,Valley Ave & Wheeler Rd SE,classic,605,active,2022/04/05 04:58:50+00,9,0,9,0,1,Yes,Yes,Yes,Yes,https://dc.lft.to/lastmile_qr_scan,https://dc.lft.to/lastmile_qr_scan,No,No,19,"CREDITCARD,KEY",42,2022/04/05 13:12:44+00,,"Washington, DC"
-76.9409860515564,38.8762350668525,28142682,38.876227,-76.940981,Ridge Rd Community Center,classic,606,active,2022/04/05 04:38:09+00,11,0,8,0,0,Yes,Yes,Yes,Yes,https://dc.lft.to/lastmile_qr_scan,https://dc.lft.to/lastmile_qr_scan,No,No,19,"CREDITCARD,KEY",42,2022/04/05 13:12:44+00,,"Washington, DC"
-76.9776855016263,38.8573752206,28142683,38.857369,-76.977688,Fort Stanton Rec Center,classic,607,active,2022/04/05 12:55:49+00,12,0,7,0,0,Yes,Yes,Yes,Yes,https://dc.lft.to/lastmile_qr_scan,https://dc.lft.to/lastmile_qr_scan,No,No,19,"CREDITCARD,KEY",42,2022/04/05 13:12:44+00,,"Washington, DC"
-77.0441024900751,38.8705663540975,28142684,38.870561,-77.044095,Long Bridge Aquatic Center,classic,695,active,2022/04/05 10:26:49+00,9,0,3,0,0,Yes,Yes,Yes,Yes,https://dc.lft.to/lastmile_qr_scan,https://dc.lft.to/lastmile_qr_scan,No,No,12,"CREDITCARD,KEY",41,2022/04/05 13:12:44+00,,"Arlington, VA"
-77.1163439924132,38.8570581378843,28142685,38.857049,-77.116339,8th Rd & S Frederick St,classic,696,active,2022/04/05 04:53:22+00,12,0,0,0,0,Yes,Yes,Yes,Yes,https://dc.lft.to/lastmile_qr_scan,https://dc.lft.to/lastmile_qr_scan,No,No,12,"CREDITCARD,KEY",41,2022/04/05 13:12:44+00,,"Arlington, VA"
-76.9960238077873,38.922408751231,28142686,38.922404,-76.996023,MBT & Bryant St NE,classic,697,active,2022/04/05 09:32:29+00,13,0,5,0,1,Yes,Yes,Yes,Yes,https://dc.lft.to/lastmile_qr_scan,https://dc.lft.to/lastmile_qr_scan,No,No,19,"CREDITCARD,KEY",42,2022/04/05 13:12:44+00,,"Washington, DC"
-77.1055606986989,38.8185211801805,28142687,38.818509,-77.105564,N Howard St & N Imboden St,classic,698,active,2022/04/05 04:33:09+00,14,0,1,0,0,Yes,Yes,Yes,Yes,https://dc.lft.to/lastmile_qr_scan,https://dc.lft.to/lastmile_qr_scan,No,No,15,"CREDITCARD,KEY",40,2022/04/05 13:12:44+00,,"Alexandria, VA"
-77.2228102747454,38.8786048254032,28142688,38.878601,-77.222808,Hartland Rd & Harte Pl,classic,701,active,2022/04/05 04:53:22+00,2,0,9,0,0,Yes,Yes,Yes,Yes,https://dc.lft.to/lastmile_qr_scan,https://dc.lft.to/lastmile_qr_scan,No,No,11,"CREDITCARD,KEY",104,2022/04/05 13:12:44+00,,"Fairfax, VA"
-77.3418208429094,38.9832106093878,28142689,38.983199,-77.341823,North Village and Park Garden,classic,702,active,2022/04/05 04:53:23+00,5,0,7,0,0,Yes,Yes,Yes,Yes,https://dc.lft.to/lastmile_qr_scan,https://dc.lft.to/lastmile_qr_scan,No,No,12,"CREDITCARD,KEY",104,2022/04/05 13:12:44+00,,"Fairfax, VA"
-77.0226838797447,38.9177222864473,28142690,38.917716,-77.022684,8th & V St NW,classic,704,active,2022/04/05 12:45:25+00,16,0,2,0,0,Yes,Yes,Yes,Yes,https://dc.lft.to/lastmile_qr_scan,https://dc.lft.to/lastmile_qr_scan,No,No,19,"CREDITCARD,KEY",42,2022/04/05 13:12:44+00,,"Washington, DC"
-77.0385694304917,38.9098628514033,28142691,38.909858,-77.038566,17th & P St NW,classic,705,active,2022/04/05 13:07:48+00,8,0,8,1,3,Yes,Yes,Yes,Yes,https://dc.lft.to/lastmile_qr_scan,https://dc.lft.to/lastmile_qr_scan,No,No,19,"CREDITCARD,KEY",42,2022/04/05 13:12:44+00,,"Washington, DC"
-77.1036689266251,38.9272993961497,28142692,38.927294,-77.103662,Arizona Ave & MacArthur Blvd NW,classic,706,active,2022/04/05 12:11:52+00,12,0,7,0,0,Yes,Yes,Yes,Yes,https://dc.lft.to/lastmile_qr_scan,https://dc.lft.to/lastmile_qr_scan,No,No,19,"CREDITCARD,KEY",42,2022/04/05 13:12:44+00,,"Washington, DC"
-77.0271696472001,38.9182077793669,28142693,38.918199,-77.027171,11th & V st NW,classic,707,active,2022/04/05 13:03:35+00,17,0,2,0,0,Yes,Yes,Yes,Yes,https://dc.lft.to/lastmile_qr_scan,https://dc.lft.to/lastmile_qr_scan,No,No,19,"CREDITCARD,KEY",42,2022/04/05 13:12:44+00,,"Washington, DC"
-77.0007055760562,38.9073198538941,28142694,38.907316,-77.000698,4th & Florida Ave NE,classic,708,active,2022/04/05 09:37:06+00,17,0,2,0,0,Yes,Yes,Yes,Yes,https://dc.lft.to/lastmile_qr_scan,https://dc.lft.to/lastmile_qr_scan,No,No,19,"CREDITCARD,KEY",42,2022/04/05 13:12:44+00,,"Washington, DC"
-77.1323417483324,38.8044946676756,28142695,38.804486,-77.132334,S Pickett St & Shillings St,classic,709,active,2022/04/05 10:19:00+00,6,0,9,1,0,Yes,Yes,Yes,Yes,https://dc.lft.to/lastmile_qr_scan,https://dc.lft.to/lastmile_qr_scan,No,No,15,"CREDITCARD,KEY",40,2022/04/05 13:12:44+00,,"Alexandria, VA"
-77.1099829714505,38.81136435143,28142696,38.811361,-77.109975,S Jordan St & Venable St,classic,710,active,2022/04/05 04:58:50+00,4,0,11,0,0,Yes,Yes,Yes,Yes,https://dc.lft.to/lastmile_qr_scan,https://dc.lft.to/lastmile_qr_scan,No,No,15,"CREDITCARD,KEY",40,2022/04/05 13:12:44+00,,"Alexandria, VA"
-77.0559095320901,38.8060067031806,28142697,38.806002,-77.055911,King St & Peyton St,classic,711,active,2022/04/05 08:34:07+00,6,0,10,0,0,Yes,Yes,Yes,Yes,https://dc.lft.to/lastmile_qr_scan,https://dc.lft.to/lastmile_qr_scan,No,No,16,"CREDITCARD,KEY",40,2022/04/05 13:12:44+00,,"Alexandria, VA"
-76.9927279928019,38.8999958377334,28142698,38.899984,-76.992725,10th & H St NE,classic,712,active,2022/04/05 09:22:33+00,4,0,15,0,0,Yes,Yes,Yes,Yes,https://dc.lft.to/lastmile_qr_scan,https://dc.lft.to/lastmile_qr_scan,No,No,19,"CREDITCARD,KEY",42,2022/04/05 13:12:44+00,,"Washington, DC"
-77.0608983194935,38.8372906573689,28142699,38.83728,-77.060899,Reed and Edison,classic,713,active,2022/04/05 04:58:55+00,5,0,6,0,0,Yes,Yes,Yes,Yes,https://dc.lft.to/lastmile_qr_scan,https://dc.lft.to/lastmile_qr_scan,No,No,11,"CREDITCARD,KEY",40,2022/04/05 13:12:44+00,,"Alexandria, VA"
-77.08507138949,38.8247988120954,28142700,38.824793,-77.085066,King St & Kenwood Ave,classic,715,active,2022/04/05 04:58:55+00,14,0,2,0,0,Yes,Yes,Yes,Yes,https://dc.lft.to/lastmile_qr_scan,https://dc.lft.to/lastmile_qr_scan,No,No,16,"CREDITCARD,KEY",40,2022/04/05 13:12:44+00,,"Alexandria, VA"
-77.0480425740679,38.8007132073404,28142701,38.800703,-77.048043,S Washington St & Wilkes St,classic,716,active,2022/04/05 10:44:51+00,5,0,7,0,0,Yes,Yes,Yes,Yes,https://dc.lft.to/lastmile_qr_scan,https://dc.lft.to/lastmile_qr_scan,No,No,12,"CREDITCARD,KEY",40,2022/04/05 13:12:44+00,,"Alexandria, VA"
-77.0497799982026,38.8324403685483,28142702,38.832431,-77.049772,Main Line Blvd & E Glebe,classic,717,active,2022/04/05 08:05:59+00,9,0,9,0,1,Yes,Yes,Yes,Yes,https://dc.lft.to/lastmile_qr_scan,https://dc.lft.to/lastmile_qr_scan,No,No,19,"CREDITCARD,KEY",40,2022/04/05 13:12:44+00,,"Alexandria, VA"
-77.057281284896,38.8368420656569,28142703,38.836838,-77.057274,Commonwealth and Reed,classic,718,active,2022/04/05 09:12:10+00,12,0,4,0,0,Yes,Yes,Yes,Yes,https://dc.lft.to/lastmile_qr_scan,https://dc.lft.to/lastmile_qr_scan,No,No,16,"CREDITCARD,KEY",40,2022/04/05 13:12:44+00,,"Alexandria, VA"
-77.1162103075071,38.8386359949404,28142704,38.83863,-77.116206,Fillmore & Bisdorf,classic,719,active,2022/04/05 04:48:12+00,5,0,6,0,0,Yes,Yes,Yes,Yes,https://dc.lft.to/lastmile_qr_scan,https://dc.lft.to/lastmile_qr_scan,No,No,11,"CREDITCARD,KEY",40,2022/04/05 13:12:44+00,,"Alexandria, VA"
-77.0889904387787,38.827678601673,28142705,38.827674,-77.088985,King St & W Braddock Rd,classic,720,active,2022/04/05 04:58:55+00,11,0,4,0,0,Yes,Yes,Yes,Yes,https://dc.lft.to/lastmile_qr_scan,https://dc.lft.to/lastmile_qr_scan,No,No,15,"CREDITCARD,KEY",40,2022/04/05 13:12:44+00,,"Alexandria, VA"
-77.1189341758656,38.8143103576642,28142706,38.814305,-77.11893,Holmes Run Pkwy & N Pickett St,classic,721,active,2022/04/05 04:59:05+00,11,0,4,0,0,Yes,Yes,Yes,Yes,https://dc.lft.to/lastmile_qr_scan,https://dc.lft.to/lastmile_qr_scan,No,No,15,"CREDITCARD,KEY",40,2022/04/05 13:12:44+00,,"Alexandria, VA"
-77.1099381916336,38.8121931754933,28142707,38.812187,-77.10994,Duke St & Jordan St,classic,724,active,2022/04/05 11:59:56+00,12,0,4,0,0,Yes,Yes,Yes,Yes,https://dc.lft.to/lastmile_qr_scan,https://dc.lft.to/lastmile_qr_scan,No,No,16,"CREDITCARD,KEY",40,2022/04/05 13:12:44+00,,"Alexandria, VA"
-77.1289086643159,38.8096153437869,28142708,38.809607,-77.128908,S Reynolds St & Edsall Rd,classic,725,active,2022/04/05 04:59:05+00,8,0,7,0,0,Yes,Yes,Yes,Yes,https://dc.lft.to/lastmile_qr_scan,https://dc.lft.to/lastmile_qr_scan,No,No,15,"CREDITCARD,KEY",40,2022/04/05 13:12:44+00,,"Alexandria, VA"
-77.0446835785832,38.804804403737,28142709,38.804801,-77.044676,King St & N Pitt St,classic,726,active,2022/04/05 08:11:21+00,0,0,15,1,0,Yes,Yes,Yes,Yes,https://dc.lft.to/lastmile_qr_scan,https://dc.lft.to/lastmile_qr_scan,No,No,15,"CREDITCARD,KEY",40,2022/04/05 13:12:44+00,,"Alexandria, VA"
-77.053739196163,38.8134847750133,28142710,38.813474,-77.053734,Braddock Rd Metro South,classic,727,active,2022/04/05 10:32:58+00,5,0,14,0,0,Yes,Yes,Yes,Yes,https://dc.lft.to/lastmile_qr_scan,https://dc.lft.to/lastmile_qr_scan,No,No,19,"CREDITCARD,KEY",40,2022/04/05 13:12:44+00,,"Alexandria, VA"
-77.0366523027635,38.9261054903053,28142711,38.926102,-77.03665,16th & Harvard St NW,classic,728,active,2022/04/05 06:36:37+00,19,0,0,0,0,Yes,Yes,Yes,Yes,https://dc.lft.to/lastmile_qr_scan,https://dc.lft.to/lastmile_qr_scan,No,No,19,"CREDITCARD,KEY",42,2022/04/05 13:12:44+00,,"Washington, DC"
-77.0743261875801,38.9126201462335,28142712,38.912614,-77.074323,Reservoir Rd & 38th St NW,classic,608,active,2022/04/05 11:37:34+00,6,0,12,0,0,Yes,Yes,Yes,Yes,https://dc.lft.to/lastmile_qr_scan,https://dc.lft.to/lastmile_qr_scan,No,No,19,"CREDITCARD,KEY",42,2022/04/05 13:12:44+00,,"Washington, DC"
-77.048858045388,38.8989318679669,28142713,38.898925,-77.048852,22nd & H St NW,classic,609,active,2022/04/05 12:48:16+00,4,0,12,2,1,Yes,Yes,Yes,Yes,https://dc.lft.to/lastmile_qr_scan,https://dc.lft.to/lastmile_qr_scan,No,No,17,"CREDITCARD,KEY",42,2022/04/05 13:12:44+00,,"Washington, DC"
-76.994895296586,38.8999509106989,28142714,38.899942,-76.994897,8th & H St NE,classic,610,active,2022/04/05 11:01:25+00,16,0,3,1,0,Yes,Yes,Yes,Yes,https://dc.lft.to/lastmile_qr_scan,https://dc.lft.to/lastmile_qr_scan,No,No,19,"CREDITCARD,KEY",42,2022/04/05 13:12:44+00,,"Washington, DC"
-77.0856453901218,38.9097117100678,28142715,38.909701,-77.085646,Hardy Rec Center,classic,611,active,2022/04/05 09:51:56+00,13,0,4,1,0,Yes,Yes,Yes,Yes,https://dc.lft.to/lastmile_qr_scan,https://dc.lft.to/lastmile_qr_scan,No,No,17,"CREDITCARD,KEY",42,2022/04/05 13:12:44+00,,"Washington, DC"
-77.0041254475704,39.0313182081365,28142716,39.031314,-77.004122,The Shoppes @ Burnt Mills,classic,612,active,2022/04/05 04:38:10+00,4,0,15,0,0,Yes,Yes,Yes,Yes,https://dc.lft.to/lastmile_qr_scan,https://dc.lft.to/lastmile_qr_scan,No,No,19,"CREDITCARD,KEY",44,2022/04/05 13:12:44+00,,"Montgomery County, MD (South)"
-76.9454965300055,39.0816427174807,28142717,39.081638,-76.945495,Briggs Chaney & Castle Dr,classic,613,active,2022/04/05 04:38:11+00,19,0,0,0,0,Yes,Yes,Yes,Yes,https://dc.lft.to/lastmile_qr_scan,https://dc.lft.to/lastmile_qr_scan,No,No,19,"CREDITCARD,KEY",44,2022/04/05 13:12:44+00,,"Montgomery County, MD (South)"
-76.9757202756908,39.0461521206952,28142718,39.046144,-76.975723,White Oak Rec Center,classic,614,active,2022/04/05 04:38:12+00,13,0,2,0,0,Yes,Yes,Yes,Yes,https://dc.lft.to/lastmile_qr_scan,https://dc.lft.to/lastmile_qr_scan,No,No,15,"CREDITCARD,KEY",44,2022/04/05 13:12:44+00,,"Montgomery County, MD (South)"
-76.9418705051669,39.0778846265424,28142719,39.077875,-76.941867,Briggs Chaney Park & Ride,classic,615,active,2022/04/05 04:38:11+00,20,0,3,0,0,Yes,Yes,Yes,Yes,https://dc.lft.to/lastmile_qr_scan,https://dc.lft.to/lastmile_qr_scan,No,No,23,"CREDITCARD,KEY",44,2022/04/05 13:12:44+00,,"Montgomery County, MD (South)"
-76.9811615201803,39.0449550458177,28142720,39.044944,-76.981155,Stewart & April,classic,616,active,2022/04/05 04:38:11+00,8,0,11,0,0,Yes,Yes,Yes,Yes,https://dc.lft.to/lastmile_qr_scan,https://dc.lft.to/lastmile_qr_scan,No,No,19,"CREDITCARD,KEY",44,2022/04/05 13:12:44+00,,"Montgomery County, MD (South)"
-76.9854354939171,39.0456582870652,28142721,39.045652,-76.985438,Stewart Ln & Old Columbia Pike,classic,617,active,2022/04/05 04:38:11+00,19,0,0,0,0,Yes,Yes,Yes,Yes,https://dc.lft.to/lastmile_qr_scan,https://dc.lft.to/lastmile_qr_scan,No,No,19,"CREDITCARD,KEY",44,2022/04/05 13:12:44+00,,"Montgomery County, MD (South)"
-76.9918243818784,39.0391100167715,28142722,39.039102,-76.991824,New Hampshire & Lockwood,classic,618,active,2022/04/05 04:38:11+00,15,0,4,0,0,Yes,Yes,Yes,Yes,https://dc.lft.to/lastmile_qr_scan,https://dc.lft.to/lastmile_qr_scan,No,No,19,"CREDITCARD,KEY",44,2022/04/05 13:12:44+00,,"Montgomery County, MD (South)"
-76.9405467889001,39.0853245898231,28142723,39.085314,-76.940547,Castle Blvd & Castle Ln,classic,619,active,2022/04/05 04:38:11+00,12,0,7,1,0,Yes,Yes,Yes,Yes,https://dc.lft.to/lastmile_qr_scan,https://dc.lft.to/lastmile_qr_scan,No,No,19,"CREDITCARD,KEY",44,2022/04/05 13:12:44+00,,"Montgomery County, MD (South)"
-76.9945388868611,39.0379931691509,28142724,39.037981,-76.994539,Oak Leaf & Lockwood,classic,620,active,2022/04/05 04:38:12+00,8,0,11,0,0,Yes,Yes,Yes,Yes,https://dc.lft.to/lastmile_qr_scan,https://dc.lft.to/lastmile_qr_scan,No,No,19,"CREDITCARD,KEY",44,2022/04/05 13:12:45+00,,"Montgomery County, MD (South)"
-76.9871228883954,39.0410463371638,28142725,39.04104,-76.987125,White Oak Transit Center,classic,621,active,2022/04/05 10:10:53+00,11,0,8,0,0,Yes,Yes,Yes,Yes,https://dc.lft.to/lastmile_qr_scan,https://dc.lft.to/lastmile_qr_scan,No,No,19,"CREDITCARD,KEY",44,2022/04/05 13:12:45+00,,"Montgomery County, MD (South)"
-77.1145596220161,38.879481852662,28142726,38.879477,-77.114563,Wilson Blvd. & N. Vermont St.,classic,622,active,2022/04/05 04:38:10+00,7,0,5,0,0,Yes,Yes,Yes,Yes,https://dc.lft.to/lastmile_qr_scan,https://dc.lft.to/lastmile_qr_scan,No,No,12,"CREDITCARD,KEY",41,2022/04/05 13:12:45+00,,"Arlington, VA"
-76.9695112727153,38.8975057778636,28142727,38.8975,-76.969509,Oklahoma Ave & Benning Rd NE,classic,623,active,2022/04/05 11:54:21+00,14,0,5,0,0,Yes,Yes,Yes,Yes,https://dc.lft.to/lastmile_qr_scan,https://dc.lft.to/lastmile_qr_scan,No,No,19,"CREDITCARD,KEY",42,2022/04/05 13:12:45+00,,"Washington, DC"
-76.9785229552959,38.8693475648925,28142728,38.869337,-76.978519,Minnesota Ave & R St SE,classic,624,active,2022/04/05 04:38:10+00,16,0,3,0,0,Yes,Yes,Yes,Yes,https://dc.lft.to/lastmile_qr_scan,https://dc.lft.to/lastmile_qr_scan,No,No,19,"CREDITCARD,KEY",42,2022/04/05 13:12:45+00,,"Washington, DC"
-77.3553042241764,38.9490199017115,28142729,38.949008,-77.355299,Vy Reston Heights,classic,625,active,2022/04/05 04:38:12+00,5,0,6,1,0,Yes,Yes,Yes,Yes,https://dc.lft.to/lastmile_qr_scan,https://dc.lft.to/lastmile_qr_scan,No,No,11,"CREDITCARD,KEY",104,2022/04/05 13:12:45+00,,"Fairfax, VA"
-77.0056512887547,38.9023921504774,28142730,38.902386,-77.005649,1st & K St NE,classic,626,active,2022/04/05 11:57:55+00,15,0,1,0,1,Yes,Yes,Yes,Yes,https://dc.lft.to/lastmile_qr_scan,https://dc.lft.to/lastmile_qr_scan,No,No,17,"CREDITCARD,KEY",42,2022/04/05 13:12:45+00,,"Washington, DC"
-77.1008018813877,38.80816561864,28142731,38.808161,-77.100796,Wheeler Ave & S. Floyd St.,classic,628,active,2022/04/05 04:43:10+00,3,0,9,0,0,Yes,Yes,Yes,Yes,https://dc.lft.to/lastmile_qr_scan,https://dc.lft.to/lastmile_qr_scan,No,No,12,"CREDITCARD,KEY",40,2022/04/05 13:12:45+00,,"Alexandria, VA"
-77.1089455727949,38.840805032018,28142732,38.840797,-77.108938,N. Beauregard St. & Berkley St.,classic,629,active,2022/04/05 04:43:11+00,13,0,6,0,0,Yes,Yes,Yes,Yes,https://dc.lft.to/lastmile_qr_scan,https://dc.lft.to/lastmile_qr_scan,No,No,19,"CREDITCARD,KEY",40,2022/04/05 13:12:45+00,,"Alexandria, VA"
-77.0494417713798,38.7930734033675,28142733,38.793065,-77.049436,Mt Vernon Trail & S. Washington St.,classic,630,active,2022/04/05 08:05:21+00,8,0,7,0,0,Yes,Yes,Yes,Yes,https://dc.lft.to/lastmile_qr_scan,https://dc.lft.to/lastmile_qr_scan,No,No,15,"CREDITCARD,KEY",40,2022/04/05 13:12:45+00,,"Alexandria, VA"
-77.0824663267183,38.8027478916564,28142734,38.802738,-77.082463,Eisenhower Ave & Ike Dr,classic,632,active,2022/04/05 11:31:30+00,13,0,2,0,0,Yes,Yes,Yes,Yes,https://dc.lft.to/lastmile_qr_scan,https://dc.lft.to/lastmile_qr_scan,No,No,15,"CREDITCARD,KEY",40,2022/04/05 13:12:45+00,,"Alexandria, VA"
-76.9858550064512,38.9110034133524,28142735,38.910993,-76.985854,Capitol Ave & Kendall St NE,classic,633,active,2022/04/05 08:19:15+00,15,0,4,0,0,Yes,Yes,Yes,Yes,https://dc.lft.to/lastmile_qr_scan,https://dc.lft.to/lastmile_qr_scan,No,No,19,"CREDITCARD,KEY",42,2022/04/05 13:12:45+00,,"Washington, DC"
-76.9863905239991,38.8840684677568,28142736,38.884058,-76.986385,14th & D St SE,classic,634,active,2022/04/05 12:30:21+00,7,0,12,2,0,Yes,Yes,Yes,Yes,https://dc.lft.to/lastmile_qr_scan,https://dc.lft.to/lastmile_qr_scan,No,No,19,"CREDITCARD,KEY",42,2022/04/05 13:12:45+00,,"Washington, DC"
-77.0105571199252,38.8662862024577,28142737,38.866277,-77.010551,Half & Water St SW,classic,636,active,2022/04/05 09:21:32+00,5,0,7,1,2,Yes,Yes,Yes,Yes,https://dc.lft.to/lastmile_qr_scan,https://dc.lft.to/lastmile_qr_scan,No,No,15,"CREDITCARD,KEY",42,2022/04/05 13:12:45+00,,"Washington, DC"
-77.0318825195611,38.9106846268622,28142738,38.910674,-77.03188,14th & Q St NW,classic,637,active,2022/04/05 08:51:22+00,19,0,0,0,0,Yes,Yes,Yes,Yes,https://dc.lft.to/lastmile_qr_scan,https://dc.lft.to/lastmile_qr_scan,No,No,19,"CREDITCARD,KEY",42,2022/04/05 13:12:45+00,,"Washington, DC"
-77.0296367865573,38.9169460131686,28142739,38.916936,-77.029631,13th & U St NW,classic,638,active,2022/04/05 13:00:52+00,9,0,10,0,0,Yes,Yes,Yes,Yes,https://dc.lft.to/lastmile_qr_scan,https://dc.lft.to/lastmile_qr_scan,No,No,19,"CREDITCARD,KEY",42,2022/04/05 13:12:45+00,,"Washington, DC"
-76.9771926237082,38.8854903587914,28142740,38.885483,-76.977187,Stadium Armory Metro,classic,639,active,2022/04/05 08:20:00+00,14,0,5,1,0,Yes,Yes,Yes,Yes,https://dc.lft.to/lastmile_qr_scan,https://dc.lft.to/lastmile_qr_scan,No,No,19,"CREDITCARD,KEY",42,2022/04/05 13:12:45+00,,"Washington, DC"
-77.0686237506844,38.9657815960674,28142741,38.965775,-77.068626,Broad Branch Rd & Northampton St NW,classic,640,active,2022/04/05 07:30:01+00,14,0,5,0,0,Yes,Yes,Yes,Yes,https://dc.lft.to/lastmile_qr_scan,https://dc.lft.to/lastmile_qr_scan,No,No,19,"CREDITCARD,KEY",42,2022/04/05 13:12:45+00,,"Washington, DC"
-77.0428240361136,38.8140388097214,28142742,38.814031,-77.042817,N Pitt St & Montgomery St,classic,641,active,2022/04/05 04:43:14+00,12,0,3,0,0,Yes,Yes,Yes,Yes,https://dc.lft.to/lastmile_qr_scan,https://dc.lft.to/lastmile_qr_scan,No,No,15,"CREDITCARD,KEY",40,2022/04/05 13:12:45+00,,"Alexandria, VA"
-77.1299505744132,38.8000831838378,28142743,38.800077,-77.129943,Van Dorn Metro,classic,642,active,2022/04/05 10:35:40+00,6,0,13,2,0,Yes,Yes,Yes,Yes,https://dc.lft.to/lastmile_qr_scan,https://dc.lft.to/lastmile_qr_scan,No,No,19,"CREDITCARD,KEY",40,2022/04/05 13:12:45+00,,"Alexandria, VA"
-77.0402955791729,38.8019503060643,28142744,38.801947,-77.040293,Duke St & Strand (Robinson Terminal),classic,643,active,2022/04/05 04:43:12+00,0,0,11,1,0,Yes,Yes,Yes,Yes,https://dc.lft.to/lastmile_qr_scan,https://dc.lft.to/lastmile_qr_scan,No,No,11,"CREDITCARD,KEY",40,2022/04/05 13:12:45+00,,"Alexandria, VA"
-77.0469209289957,38.8983110849976,28142745,38.898302,-77.046913,21st St & G st NW,classic,645,active,2022/04/05 12:43:07+00,12,0,6,1,1,Yes,Yes,Yes,Yes,https://dc.lft.to/lastmile_qr_scan,https://dc.lft.to/lastmile_qr_scan,No,No,19,"CREDITCARD,KEY",42,2022/04/05 13:12:45+00,,"Washington, DC"
-77.0176588071569,38.8811311906459,28142746,38.881123,-77.017658,4th St & G St SW,classic,646,active,2022/04/05 11:43:18+00,6,0,13,0,0,Yes,Yes,Yes,Yes,https://dc.lft.to/lastmile_qr_scan,https://dc.lft.to/lastmile_qr_scan,No,No,19,"CREDITCARD,KEY",42,2022/04/05 13:12:45+00,,"Washington, DC"
-77.013824324186,38.9581078663159,28142747,38.958098,-77.013821,Kansas Ave & Longfellow St NW,classic,647,active,2022/04/05 08:12:08+00,12,0,7,0,0,Yes,Yes,Yes,Yes,https://dc.lft.to/lastmile_qr_scan,https://dc.lft.to/lastmile_qr_scan,No,No,19,"CREDITCARD,KEY",42,2022/04/05 13:12:45+00,,"Washington, DC"
-77.0459233543417,38.8529091467853,28142748,38.852903,-77.045916,National Airport,classic,648,active,2022/04/05 05:20:00+00,8,0,11,3,0,Yes,Yes,Yes,Yes,https://dc.lft.to/lastmile_qr_scan,https://dc.lft.to/lastmile_qr_scan,No,No,19,"CREDITCARD,KEY",41,2022/04/05 13:12:45+00,,"Arlington, VA"
-77.0568774310075,38.8648494967217,28142749,38.864838,-77.056873,Fern St & Army Navy Dr,classic,649,active,2022/04/05 09:52:47+00,0,0,14,0,0,Yes,Yes,Yes,Yes,https://dc.lft.to/lastmile_qr_scan,https://dc.lft.to/lastmile_qr_scan,No,No,15,"CREDITCARD,KEY",41,2022/04/05 13:12:45+00,,"Arlington, VA"
-77.0748913942572,38.890873603203,28142750,38.890863,-77.074893,Arlington Blvd & Ft Myer Dr,classic,650,active,2022/04/05 10:49:20+00,5,0,10,0,0,Yes,Yes,Yes,Yes,https://dc.lft.to/lastmile_qr_scan,https://dc.lft.to/lastmile_qr_scan,No,No,15,"CREDITCARD,KEY",41,2022/04/05 13:12:45+00,,"Arlington, VA"
-77.0594946966297,38.8530111205071,28142751,38.853002,-77.059496,23rd St S & Hayes St,classic,651,active,2022/04/05 12:41:38+00,14,0,1,1,0,Yes,Yes,Yes,Yes,https://dc.lft.to/lastmile_qr_scan,https://dc.lft.to/lastmile_qr_scan,No,No,15,"CREDITCARD,KEY",41,2022/04/05 13:12:45+00,,"Arlington, VA"
-77.0738583357291,38.8950721635146,28142752,38.895068,-77.07386,Wilson Blvd & N Oak St,classic,652,active,2022/04/05 13:02:10+00,11,0,5,0,1,Yes,Yes,Yes,Yes,https://dc.lft.to/lastmile_qr_scan,https://dc.lft.to/lastmile_qr_scan,No,No,17,"CREDITCARD,KEY",41,2022/04/05 13:12:45+00,,"Arlington, VA"
-77.0842687033841,38.8862639310114,28142753,38.886256,-77.084262,Arlington Blvd & Fairfax Dr,classic,653,active,2022/04/05 09:38:21+00,9,0,7,0,0,Yes,Yes,Yes,Yes,https://dc.lft.to/lastmile_qr_scan,https://dc.lft.to/lastmile_qr_scan,No,No,16,"CREDITCARD,KEY",41,2022/04/05 13:12:45+00,,"Arlington, VA"
-77.0138175677936,38.8637544974417,28142754,38.863743,-77.013814,2nd & V St SW / James Creek Marina,classic,654,active,2022/04/05 12:39:32+00,8,0,10,0,0,Yes,Yes,Yes,Yes,https://dc.lft.to/lastmile_qr_scan,https://dc.lft.to/lastmile_qr_scan,No,No,19,"CREDITCARD,KEY",42,2022/04/05 13:12:45+00,,"Washington, DC"
-77.0059139126738,38.8718447183143,28142755,38.871841,-77.00591,1st St & Potomac Ave SE,classic,655,active,2022/04/05 13:10:13+00,7,0,12,1,0,Yes,Yes,Yes,Yes,https://dc.lft.to/lastmile_qr_scan,https://dc.lft.to/lastmile_qr_scan,No,No,19,"CREDITCARD,KEY",42,2022/04/05 13:12:45+00,,"Washington, DC"
-77.0454925205786,38.9180399323106,28142756,38.918036,-77.045487,20th & Columbia Rd NW,classic,656,active,2022/04/05 09:28:18+00,19,0,0,0,0,Yes,Yes,Yes,Yes,https://dc.lft.to/lastmile_qr_scan,https://dc.lft.to/lastmile_qr_scan,No,No,19,"CREDITCARD,KEY",42,2022/04/05 13:12:45+00,,"Washington, DC"
-77.0021688789852,38.8768264936278,28142757,38.876823,-77.002161,3rd & M st SE,classic,657,active,2022/04/05 11:53:36+00,12,0,11,1,0,Yes,Yes,Yes,Yes,https://dc.lft.to/lastmile_qr_scan,https://dc.lft.to/lastmile_qr_scan,No,No,23,"CREDITCARD,KEY",42,2022/04/05 13:12:45+00,,"Washington, DC"
-76.9253170279883,38.8833247135964,28142758,38.883318,-76.925315,53rd & D St SE/C.W. Harris Elementary,classic,659,active,2022/04/05 09:40:44+00,18,0,1,0,0,Yes,Yes,Yes,Yes,https://dc.lft.to/lastmile_qr_scan,https://dc.lft.to/lastmile_qr_scan,No,No,19,"CREDITCARD,KEY",42,2022/04/05 13:12:45+00,,"Washington, DC"
-77.1061183133253,38.8373123543133,28142759,38.837306,-77.106111,N Hampton Dr & Ford Ave,classic,662,active,2022/04/05 04:38:09+00,10,0,1,0,0,Yes,Yes,Yes,Yes,https://dc.lft.to/lastmile_qr_scan,https://dc.lft.to/lastmile_qr_scan,No,No,11,"CREDITCARD,KEY",40,2022/04/05 13:12:45+00,,"Alexandria, VA"
-77.1357939991859,38.8097156352312,28142760,38.809709,-77.135788,Whiting & Lane Dr,classic,663,active,2022/04/05 10:48:22+00,9,0,6,1,0,Yes,Yes,Yes,Yes,https://dc.lft.to/lastmile_qr_scan,https://dc.lft.to/lastmile_qr_scan,No,No,15,"CREDITCARD,KEY",40,2022/04/05 13:12:45+00,,"Alexandria, VA"
-77.1100129093523,38.815850554202,28142761,38.815842,-77.110014,N Howard St & Taney Ave,classic,664,active,2022/04/05 04:48:13+00,10,0,5,0,0,Yes,Yes,Yes,Yes,https://dc.lft.to/lastmile_qr_scan,https://dc.lft.to/lastmile_qr_scan,No,No,15,"CREDITCARD,KEY",40,2022/04/05 13:12:45+00,,"Alexandria, VA"
-76.9709368205825,38.8787777199039,28142762,38.878771,-76.97093,Anacostia Roller Skating Pavillion,classic,665,active,2022/04/05 13:09:49+00,3,0,16,0,0,Yes,Yes,Yes,Yes,https://dc.lft.to/lastmile_qr_scan,https://dc.lft.to/lastmile_qr_scan,No,No,19,"CREDITCARD,KEY",42,2022/04/05 13:12:45+00,,"Washington, DC"
-77.0519544118017,38.8450332415105,28142763,38.845028,-77.051956,S Clark St & 33rd St,classic,667,active,2022/04/05 04:43:12+00,8,0,3,0,0,Yes,Yes,Yes,Yes,https://dc.lft.to/lastmile_qr_scan,https://dc.lft.to/lastmile_qr_scan,No,No,11,"CREDITCARD,KEY",41,2022/04/05 13:12:45+00,,"Arlington, VA"
-77.1181132561667,38.8540295265966,28142764,38.854019,-77.118106,Columbia Pike & S Greenbrier St,classic,668,active,2022/04/05 08:11:25+00,13,0,2,2,0,Yes,Yes,Yes,Yes,https://dc.lft.to/lastmile_qr_scan,https://dc.lft.to/lastmile_qr_scan,No,No,15,"CREDITCARD,KEY",41,2022/04/05 13:12:45+00,,"Arlington, VA"
-77.1105858083632,38.8288942972716,28142765,38.828887,-77.110588,Kenmore Ave & Seminary Rd,classic,669,active,2022/04/05 04:38:10+00,10,0,1,0,0,Yes,Yes,Yes,Yes,https://dc.lft.to/lastmile_qr_scan,https://dc.lft.to/lastmile_qr_scan,No,No,11,"CREDITCARD,KEY",40,2022/04/05 13:12:45+00,,"Alexandria, VA"
-77.0714501296587,38.8960916071826,28142766,38.896087,-77.071452,Rosslyn Metro / Wilson Blvd & N Moore St,classic,670,active,2022/04/05 12:31:45+00,12,0,9,0,0,Yes,Yes,Yes,Yes,https://dc.lft.to/lastmile_qr_scan,https://dc.lft.to/lastmile_qr_scan,No,No,21,"CREDITCARD,KEY",41,2022/04/05 13:12:45+00,,"Arlington, VA"
-77.1621172409272,38.8871547275415,28142767,38.88715,-77.16212,W&OD Trail & Langston Blvd,classic,671,active,2022/04/05 06:19:28+00,14,0,1,0,0,Yes,Yes,Yes,Yes,https://dc.lft.to/lastmile_qr_scan,https://dc.lft.to/lastmile_qr_scan,No,No,15,"CREDITCARD,KEY",41,2022/04/05 13:12:45+00,,"Arlington, VA"
-76.8780122541393,39.0003206802938,28142768,39.00031,-76.878005,Roosevelt Center & Crescent Rd,classic,672,active,2022/04/05 12:30:12+00,14,0,1,0,0,Yes,Yes,Yes,Yes,https://dc.lft.to/lastmile_qr_scan,https://dc.lft.to/lastmile_qr_scan,No,No,15,"CREDITCARD,KEY",133,2022/04/05 13:12:45+00,,Prince George's County
-76.8912447535881,39.0061980581302,28142769,39.006191,-76.891247,Crescent Rd & Ridge Rd,classic,673,active,2022/04/05 04:58:49+00,10,0,5,0,0,Yes,Yes,Yes,Yes,https://dc.lft.to/lastmile_qr_scan,https://dc.lft.to/lastmile_qr_scan,No,No,15,"CREDITCARD,KEY",133,2022/04/05 13:12:45+00,,Prince George's County
-76.9162449046559,39.0024712218644,28142770,39.002459,-76.916243,Greenbelt Station Parkway,classic,674,active,2022/04/05 04:43:12+00,3,0,8,0,0,Yes,Yes,Yes,Yes,https://dc.lft.to/lastmile_qr_scan,https://dc.lft.to/lastmile_qr_scan,No,No,11,"CREDITCARD,KEY",133,2022/04/05 13:12:45+00,,Prince George's County
-77.3593484997281,38.9663485799764,28142771,38.966344,-77.359341,Baron Cameron Ave & North Hampton Ave,classic,675,active,2022/04/05 04:53:21+00,6,0,6,0,0,Yes,Yes,Yes,Yes,https://dc.lft.to/lastmile_qr_scan,https://dc.lft.to/lastmile_qr_scan,No,No,12,"CREDITCARD,KEY",104,2022/04/05 13:12:45+00,,"Fairfax, VA"
-77.3377770594948,38.9360728076146,28142772,38.936061,-77.337775,Ridge Heights Rd & Seahawks Dr,classic,676,active,2022/04/05 04:53:25+00,12,0,0,0,0,Yes,Yes,Yes,Yes,https://dc.lft.to/lastmile_qr_scan,https://dc.lft.to/lastmile_qr_scan,No,No,12,"CREDITCARD,KEY",104,2022/04/05 13:12:45+00,,"Fairfax, VA"
-77.3292801640051,38.9668514995887,28142773,38.966848,-77.329282,Becontree Ln & Goldenrain Ct,classic,677,active,2022/04/05 04:53:23+00,11,0,1,0,0,Yes,Yes,Yes,Yes,https://dc.lft.to/lastmile_qr_scan,https://dc.lft.to/lastmile_qr_scan,No,No,12,"CREDITCARD,KEY",104,2022/04/05 13:12:45+00,,"Fairfax, VA"
-77.3267597303404,38.9708132137423,28142774,38.970807,-77.326761,Ring Rd & North Shore Dr,classic,678,active,2022/04/05 04:53:26+00,2,0,10,0,0,Yes,Yes,Yes,Yes,https://dc.lft.to/lastmile_qr_scan,https://dc.lft.to/lastmile_qr_scan,No,No,12,"CREDITCARD,KEY",104,2022/04/05 13:12:45+00,,"Fairfax, VA"
-77.3518379420974,38.9736321154641,28142775,38.973625,-77.351837,Reston Pkwy & Bennington Woods Rd,classic,679,active,2022/04/05 04:53:26+00,9,0,3,0,0,Yes,Yes,Yes,Yes,https://dc.lft.to/lastmile_qr_scan,https://dc.lft.to/lastmile_qr_scan,No,No,12,"CREDITCARD,KEY",104,2022/04/05 13:12:45+00,,"Fairfax, VA"
-77.3343648600112,38.9659902898535,28142776,38.965979,-77.334359,Inlet Ct & Wiehle Dr,classic,680,active,2022/04/05 04:53:22+00,9,0,3,0,0,Yes,Yes,Yes,Yes,https://dc.lft.to/lastmile_qr_scan,https://dc.lft.to/lastmile_qr_scan,No,No,12,"CREDITCARD,KEY",104,2022/04/05 13:12:45+00,,"Fairfax, VA"
-77.3425446702135,38.9633181695695,28142777,38.963314,-77.342546,Fairway Dr & Hook Rd,classic,681,active,2022/04/05 04:53:27+00,12,0,0,0,0,Yes,Yes,Yes,Yes,https://dc.lft.to/lastmile_qr_scan,https://dc.lft.to/lastmile_qr_scan,No,No,12,"CREDITCARD,KEY",104,2022/04/05 13:12:45+00,,"Fairfax, VA"
-77.3484920337213,38.9667057384444,28142778,38.9667,-77.348487,Vantage Hill Rd & Wainwright Dr,classic,682,active,2022/04/05 04:53:26+00,8,0,4,0,0,Yes,Yes,Yes,Yes,https://dc.lft.to/lastmile_qr_scan,https://dc.lft.to/lastmile_qr_scan,No,No,12,"CREDITCARD,KEY",104,2022/04/05 13:12:45+00,,"Fairfax, VA"
-77.3392934739043,38.9590306808744,28142779,38.959025,-77.339295,Links Dr & Wedge Dr,classic,684,active,2022/04/05 04:53:23+00,8,0,4,0,0,Yes,Yes,Yes,Yes,https://dc.lft.to/lastmile_qr_scan,https://dc.lft.to/lastmile_qr_scan,No,No,12,"CREDITCARD,KEY",104,2022/04/05 13:12:45+00,,"Fairfax, VA"
-77.3535489777337,38.9440165807236,28142780,38.944013,-77.353552,Golf Course Sq and Golf Course Dr,classic,685,active,2022/04/05 06:36:49+00,10,0,2,0,0,Yes,Yes,Yes,Yes,https://dc.lft.to/lastmile_qr_scan,https://dc.lft.to/lastmile_qr_scan,No,No,12,"CREDITCARD,KEY",104,2022/04/05 13:12:45+00,,"Fairfax, VA"
-77.3623010066863,38.9433591976606,28142781,38.94335,-77.362304,South Lakes Dr and Reston Pkwy,classic,686,active,2022/04/05 04:53:22+00,3,0,9,0,0,Yes,Yes,Yes,Yes,https://dc.lft.to/lastmile_qr_scan,https://dc.lft.to/lastmile_qr_scan,No,No,12,"CREDITCARD,KEY",104,2022/04/05 13:12:45+00,,"Fairfax, VA"
-77.3540652735243,38.9388081866269,28142782,38.938797,-77.354067,Olde Crafts Dr and Cartwright Pl,classic,687,active,2022/04/05 04:53:22+00,10,0,2,0,0,Yes,Yes,Yes,Yes,https://dc.lft.to/lastmile_qr_scan,https://dc.lft.to/lastmile_qr_scan,No,No,12,"CREDITCARD,KEY",104,2022/04/05 13:12:45+00,,"Fairfax, VA"
-77.3678751365281,38.937153040774,28142783,38.937146,-77.367868,Green Range Dr and Glade Dr,classic,688,active,2022/04/05 04:53:27+00,2,0,10,1,0,Yes,Yes,Yes,Yes,https://dc.lft.to/lastmile_qr_scan,https://dc.lft.to/lastmile_qr_scan,No,No,12,"CREDITCARD,KEY",104,2022/04/05 13:12:45+00,,"Fairfax, VA"
-77.3665018293596,38.9414993880206,28142784,38.941496,-77.366499,South Gate Community Center,classic,689,active,2022/04/05 04:53:22+00,12,0,0,0,0,Yes,Yes,Yes,Yes,https://dc.lft.to/lastmile_qr_scan,https://dc.lft.to/lastmile_qr_scan,No,No,12,"CREDITCARD,KEY",104,2022/04/05 13:12:45+00,,"Fairfax, VA"
-77.3534546823668,38.9785097372476,28142785,38.978503,-77.353454,Lake Newport Rd and Autumn Ridge Cir,classic,690,active,2022/04/05 04:53:27+00,8,0,3,0,1,Yes,Yes,Yes,Yes,https://dc.lft.to/lastmile_qr_scan,https://dc.lft.to/lastmile_qr_scan,No,No,12,"CREDITCARD,KEY",104,2022/04/05 13:12:45+00,,"Fairfax, VA"
-77.3316540082449,38.9339283353644,28142786,38.933923,-77.331653,Ridge Heights and Owl Cove Ln,classic,691,active,2022/04/04 20:14:15+00,7,0,5,0,0,Yes,Yes,Yes,Yes,https://dc.lft.to/lastmile_qr_scan,https://dc.lft.to/lastmile_qr_scan,No,No,12,"CREDITCARD,KEY",104,2022/04/05 13:12:45+00,,"Fairfax, VA"
-77.3458816581364,38.9305179662576,28142787,38.93051,-77.345874,Soapstone Dr Convenience Center,classic,692,active,2022/04/05 04:53:22+00,8,0,4,0,0,Yes,Yes,Yes,Yes,https://dc.lft.to/lastmile_qr_scan,https://dc.lft.to/lastmile_qr_scan,No,No,12,"CREDITCARD,KEY",104,2022/04/05 13:12:45+00,,"Fairfax, VA"
-77.0772017706082,38.8635676402324,28142788,38.863556,-77.077201,Columbia Pike & S Scott St/12th St S,classic,693,active,2022/04/05 04:03:03+00,4,0,7,0,0,Yes,Yes,Yes,Yes,https://dc.lft.to/lastmile_qr_scan,https://dc.lft.to/lastmile_qr_scan,No,No,11,"CREDITCARD,KEY",41,2022/04/05 13:12:45+00,,"Arlington, VA"
-77.0051750419075,38.8531342674435,28142789,38.853124,-77.005174,St. Elizabeths West Campus/DHS,classic,694,active,2022/04/05 08:07:30+00,16,0,3,0,0,Yes,Yes,Yes,Yes,https://dc.lft.to/lastmile_qr_scan,https://dc.lft.to/lastmile_qr_scan,No,No,19,"CREDITCARD,KEY",42,2022/04/05 13:12:45+00,,"Washington, DC"
-77.0162612064804,38.9688453896986,28142790,38.968834,-77.016258,3rd & Underwood St NW,classic,469,active,2022/04/05 12:08:35+00,10,0,9,2,0,Yes,Yes,Yes,Yes,https://dc.lft.to/lastmile_qr_scan,https://dc.lft.to/lastmile_qr_scan,No,No,19,"CREDITCARD,KEY",42,2022/04/05 13:12:45+00,,"Washington, DC"
-76.9795187527534,38.932937744393,28142791,38.93293,-76.979517,18th & Monroe St NE,classic,470,active,2022/04/05 07:25:10+00,6,0,13,2,0,Yes,Yes,Yes,Yes,https://dc.lft.to/lastmile_qr_scan,https://dc.lft.to/lastmile_qr_scan,No,No,19,"CREDITCARD,KEY",42,2022/04/05 13:12:45+00,,"Washington, DC"
-77.0217394171275,38.8834546665888,28142792,38.88345,-77.021741,7th & E St SW,classic,471,active,2022/04/05 08:56:10+00,4,0,15,1,0,Yes,Yes,Yes,Yes,https://dc.lft.to/lastmile_qr_scan,https://dc.lft.to/lastmile_qr_scan,No,No,19,"CREDITCARD,KEY",42,2022/04/05 13:12:45+00,,"Washington, DC"
-77.1649755077298,39.1213365265213,28142793,39.121327,-77.164969,Shady Grove Metro East,classic,472,active,2022/04/05 04:58:57+00,16,0,3,0,0,Yes,Yes,Yes,Yes,https://dc.lft.to/lastmile_qr_scan,https://dc.lft.to/lastmile_qr_scan,No,No,19,"CREDITCARD,KEY",43,2022/04/05 13:12:45+00,,"Montgomery County, MD (North)"
-77.0651530283432,38.9053739013579,28142794,38.905368,-77.065149,Potomac & M St NW,classic,473,active,2022/04/05 12:10:37+00,0,0,18,0,1,Yes,Yes,Yes,Yes,https://dc.lft.to/lastmile_qr_scan,https://dc.lft.to/lastmile_qr_scan,No,No,19,"CREDITCARD,KEY",42,2022/04/05 13:12:45+00,,"Washington, DC"
-77.0407912903296,38.9240952635326,28142795,38.924088,-77.040787,Columbia & Ontario Rd NW,classic,474,active,2022/04/05 13:05:35+00,22,0,1,0,0,Yes,Yes,Yes,Yes,https://dc.lft.to/lastmile_qr_scan,https://dc.lft.to/lastmile_qr_scan,No,No,23,"CREDITCARD,KEY",42,2022/04/05 13:12:45+00,,"Washington, DC"
-77.111069760953,38.8882864233651,28142796,38.888282,-77.111066,Washington-Liberty High School / N Stafford St & Generals Way,classic,475,active,2022/04/05 06:38:54+00,8,0,7,1,0,Yes,Yes,Yes,Yes,https://dc.lft.to/lastmile_qr_scan,https://dc.lft.to/lastmile_qr_scan,No,No,15,"CREDITCARD,KEY",41,2022/04/05 13:12:45+00,,"Arlington, VA"
-77.1423246711007,38.8860544731585,28142797,38.886048,-77.142317,Westover Library / Washington Blvd & N McKinley Rd,classic,476,active,2022/04/05 04:58:53+00,13,0,2,0,0,Yes,Yes,Yes,Yes,https://dc.lft.to/lastmile_qr_scan,https://dc.lft.to/lastmile_qr_scan,No,No,15,"CREDITCARD,KEY",41,2022/04/05 13:12:45+00,,"Arlington, VA"
-77.1020262818468,38.8593146271267,28142798,38.859306,-77.102019,Columbia Pike & George Mason Dr,classic,477,active,2022/04/05 04:18:07+00,3,0,11,1,1,Yes,Yes,Yes,Yes,https://dc.lft.to/lastmile_qr_scan,https://dc.lft.to/lastmile_qr_scan,No,No,15,"CREDITCARD,KEY",41,2022/04/05 13:12:45+00,,"Arlington, VA"
-77.1670560551607,39.1258375521472,28142799,39.125828,-77.167059,Columbus Ave & Tribeca St,classic,478,active,2022/04/05 04:58:57+00,7,0,4,0,0,Yes,Yes,Yes,Yes,https://dc.lft.to/lastmile_qr_scan,https://dc.lft.to/lastmile_qr_scan,No,No,11,"CREDITCARD,KEY",43,2022/04/05 13:12:45+00,,"Montgomery County, MD (North)"
-77.1648645035427,39.1233364472643,28142800,39.12333,-77.16486,Columbus Ave & Gramercy Blvd,classic,479,active,2022/04/05 04:33:10+00,7,0,4,2,0,Yes,Yes,Yes,Yes,https://dc.lft.to/lastmile_qr_scan,https://dc.lft.to/lastmile_qr_scan,No,No,11,"CREDITCARD,KEY",43,2022/04/05 13:12:45+00,,"Montgomery County, MD (North)"
-77.3542838294067,38.9642200551937,28142801,38.964208,-77.35428,Reston Pkwy & Spectrum Dr,classic,480,active,2022/04/05 04:33:11+00,8,0,7,0,0,Yes,Yes,Yes,Yes,https://dc.lft.to/lastmile_qr_scan,https://dc.lft.to/lastmile_qr_scan,No,No,15,"CREDITCARD,KEY",104,2022/04/05 13:12:45+00,,"Fairfax, VA"
-77.2038668517549,39.1056464863681,28142802,39.105642,-77.20386,Key West Ave & Great Seneca Hwy,classic,481,active,2022/04/05 04:33:10+00,8,0,3,0,0,Yes,Yes,Yes,Yes,https://dc.lft.to/lastmile_qr_scan,https://dc.lft.to/lastmile_qr_scan,No,No,11,"CREDITCARD,KEY",43,2022/04/05 13:12:45+00,,"Montgomery County, MD (North)"
-77.0541613725809,38.8995060647481,28142803,38.8995,-77.054155,Virginia Ave & 25th St NW,classic,482,active,2022/04/05 11:27:29+00,7,0,12,0,0,Yes,Yes,Yes,Yes,https://dc.lft.to/lastmile_qr_scan,https://dc.lft.to/lastmile_qr_scan,No,No,19,"CREDITCARD,KEY",42,2022/04/05 13:12:45+00,,"Washington, DC"
-77.0346817365302,38.9054319626643,28142804,38.905424,-77.034674,15th & M St NW,classic,483,active,2022/04/05 11:41:23+00,3,0,16,2,0,Yes,Yes,Yes,Yes,https://dc.lft.to/lastmile_qr_scan,https://dc.lft.to/lastmile_qr_scan,No,No,19,"CREDITCARD,KEY",42,2022/04/05 13:12:45+00,,"Washington, DC"
-77.0271148173654,38.925639659941,28142805,38.925636,-77.027112,11th & Girard St NW,classic,484,active,2022/04/05 12:12:57+00,15,0,4,0,0,Yes,Yes,Yes,Yes,https://dc.lft.to/lastmile_qr_scan,https://dc.lft.to/lastmile_qr_scan,No,No,19,"CREDITCARD,KEY",42,2022/04/05 13:12:45+00,,"Washington, DC"
-77.045638977447,38.9126528900727,28142806,38.912644,-77.04564,Connecticut Ave & R St NW,classic,485,active,2022/04/05 10:35:43+00,6,0,11,0,2,Yes,Yes,Yes,Yes,https://dc.lft.to/lastmile_qr_scan,https://dc.lft.to/lastmile_qr_scan,No,No,19,"CREDITCARD,KEY",42,2022/04/05 13:12:45+00,,"Washington, DC"
-77.0820860135494,38.8925623436231,28142807,38.892556,-77.082089,Wilson Blvd & N Troy St,classic,486,active,2022/04/05 11:46:06+00,6,0,9,2,0,Yes,Yes,Yes,Yes,https://dc.lft.to/lastmile_qr_scan,https://dc.lft.to/lastmile_qr_scan,No,No,15,"CREDITCARD,KEY",41,2022/04/05 13:12:45+00,,"Arlington, VA"
-77.0871306262456,38.9363031916354,28142808,38.936298,-77.087128,American University East Campus,classic,487,active,2022/04/05 09:43:47+00,13,0,6,2,0,Yes,Yes,Yes,Yes,https://dc.lft.to/lastmile_qr_scan,https://dc.lft.to/lastmile_qr_scan,No,No,19,"CREDITCARD,KEY",42,2022/04/05 13:12:45+00,,"Washington, DC"
-77.0332344615027,38.8922531486667,28142809,38.892244,-77.033234,15th St & Constitution Ave NW,classic,488,active,2022/04/05 11:41:03+00,11,0,8,0,0,Yes,Yes,Yes,Yes,https://dc.lft.to/lastmile_qr_scan,https://dc.lft.to/lastmile_qr_scan,No,No,19,"CREDITCARD,KEY",42,2022/04/05 13:12:45+00,,"Washington, DC"
-77.050268958512,38.9053091869657,28142810,38.905303,-77.050264,23rd & M St NW,classic,490,active,2022/04/05 12:38:47+00,14,0,5,2,0,Yes,Yes,Yes,Yes,https://dc.lft.to/lastmile_qr_scan,https://dc.lft.to/lastmile_qr_scan,No,No,19,"CREDITCARD,KEY",42,2022/04/05 13:12:45+00,,"Washington, DC"
-77.1926441972298,39.106980642618,28142811,39.106971,-77.192645,Corporate Blvd & Omega Dr,classic,491,active,2022/04/05 09:44:52+00,8,0,7,5,0,Yes,Yes,Yes,Yes,https://dc.lft.to/lastmile_qr_scan,https://dc.lft.to/lastmile_qr_scan,No,No,15,"CREDITCARD,KEY",43,2022/04/05 13:12:45+00,,"Montgomery County, MD (North)"
-77.2023537563786,39.1061625649145,28142812,39.106152,-77.202354,Key West Ave & Diamondback Dr,classic,492,active,2022/04/05 04:58:57+00,10,0,1,1,0,Yes,Yes,Yes,Yes,https://dc.lft.to/lastmile_qr_scan,https://dc.lft.to/lastmile_qr_scan,No,No,11,"CREDITCARD,KEY",43,2022/04/05 13:12:45+00,,"Montgomery County, MD (North)"
-76.9818475169274,38.846277549894,28142813,38.84627,-76.98185,Alabama Ave & Stanton Rd SE / Shops at Park Village,classic,493,active,2022/04/05 06:19:43+00,19,0,0,0,0,Yes,Yes,Yes,Yes,https://dc.lft.to/lastmile_qr_scan,https://dc.lft.to/lastmile_qr_scan,No,No,19,"CREDITCARD,KEY",42,2022/04/05 13:12:45+00,,"Washington, DC"
-76.9755702327,38.8437810657902,28142814,38.84377,-76.97557,Mississippi Ave & 19th St SE / THEARC,classic,494,active,2022/04/05 07:26:36+00,1,0,18,0,0,Yes,Yes,Yes,Yes,https://dc.lft.to/lastmile_qr_scan,https://dc.lft.to/lastmile_qr_scan,No,No,19,"CREDITCARD,KEY",42,2022/04/05 13:12:45+00,,"Washington, DC"
-76.9770323693897,38.846240668133,28142815,38.84623,-76.97703,19th & Savannah St SE,classic,495,active,2022/04/05 04:58:51+00,4,0,7,1,0,Yes,Yes,Yes,Yes,https://dc.lft.to/lastmile_qr_scan,https://dc.lft.to/lastmile_qr_scan,No,No,11,"CREDITCARD,KEY",42,2022/04/05 13:12:45+00,,"Washington, DC"
-77.0009006729649,38.8360093238993,28142816,38.836,-77.0009,4th St & Mississippi Ave SE,classic,496,active,2022/04/05 08:21:00+00,10,0,9,4,0,Yes,Yes,Yes,Yes,https://dc.lft.to/lastmile_qr_scan,https://dc.lft.to/lastmile_qr_scan,No,No,19,"CREDITCARD,KEY",42,2022/04/05 13:12:45+00,,"Washington, DC"
-77.0054954132169,38.8244873697095,28142817,38.824481,-77.005497,1st & S Capitol St SE / Oxon Run Trail,classic,497,active,2022/04/05 04:33:08+00,9,0,9,1,1,Yes,Yes,Yes,Yes,https://dc.lft.to/lastmile_qr_scan,https://dc.lft.to/lastmile_qr_scan,No,No,19,"CREDITCARD,KEY",42,2022/04/05 13:12:45+00,,"Washington, DC"
-77.002236360431,38.8237397743188,28142818,38.82373,-77.00223,Livingston Rd & 3rd St SE,classic,498,active,2022/04/05 04:58:50+00,0,0,15,0,0,Yes,Yes,Yes,Yes,https://dc.lft.to/lastmile_qr_scan,https://dc.lft.to/lastmile_qr_scan,No,No,15,"CREDITCARD,KEY",42,2022/04/05 13:12:45+00,,"Washington, DC"
-77.010331355664,38.8190999717733,28142819,38.81909,-77.01033,Joliet St & MLK Ave SW/Bald Eagle Rec Ctr,classic,499,active,2022/04/05 04:58:57+00,13,0,6,0,0,Yes,Yes,Yes,Yes,https://dc.lft.to/lastmile_qr_scan,https://dc.lft.to/lastmile_qr_scan,No,No,19,"CREDITCARD,KEY",42,2022/04/05 13:12:45+00,,"Washington, DC"
-76.9497167322909,38.8830224728115,28142820,38.883011,-76.949709,37th & Ely Pl SE,classic,500,active,2022/04/05 04:58:57+00,12,0,3,0,0,Yes,Yes,Yes,Yes,https://dc.lft.to/lastmile_qr_scan,https://dc.lft.to/lastmile_qr_scan,No,No,15,"CREDITCARD,KEY",42,2022/04/05 13:12:45+00,,"Washington, DC"
-77.0333862848098,38.8964690225048,28142821,38.896465,-77.033381,15th St & Pennsylvania Ave NW,classic,501,active,2022/04/05 11:15:27+00,2,0,17,2,0,Yes,Yes,Yes,Yes,https://dc.lft.to/lastmile_qr_scan,https://dc.lft.to/lastmile_qr_scan,No,No,19,"CREDITCARD,KEY",42,2022/04/05 13:12:45+00,,"Washington, DC"
-77.0252421111507,38.8804451600152,28142822,38.88044,-77.025236,Maine Ave & 9th St SW,classic,505,active,2022/04/05 12:49:00+00,11,0,2,0,1,Yes,Yes,Yes,Yes,https://dc.lft.to/lastmile_qr_scan,https://dc.lft.to/lastmile_qr_scan,No,No,15,"CREDITCARD,KEY",42,2022/04/05 13:12:45+00,,"Washington, DC"
-77.0077969838468,38.9150037115803,28142823,38.915,-77.0078,Lincoln Rd & Seaton Pl NE/Harry Thomas Rec Center,classic,506,active,2022/04/05 09:06:51+00,18,0,0,0,0,Yes,Yes,Yes,Yes,https://dc.lft.to/lastmile_qr_scan,https://dc.lft.to/lastmile_qr_scan,No,No,19,"CREDITCARD,KEY",42,2022/04/05 13:12:45+00,,"Washington, DC"
-77.0500659483643,39.043135226112,28142824,39.04313,-77.05006,Blueridge Ave & Elkin St,classic,507,active,2022/04/05 04:58:51+00,3,0,12,0,0,Yes,Yes,Yes,Yes,https://dc.lft.to/lastmile_qr_scan,https://dc.lft.to/lastmile_qr_scan,No,No,15,"CREDITCARD,KEY",44,2022/04/05 13:12:45+00,,"Montgomery County, MD (South)"
-77.0279111925734,38.9567451040715,28142825,38.95674,-77.02791,Georgia Ave & Kennedy St NW,classic,508,active,2022/04/05 08:11:06+00,14,0,5,0,0,Yes,Yes,Yes,Yes,https://dc.lft.to/lastmile_qr_scan,https://dc.lft.to/lastmile_qr_scan,No,No,19,"CREDITCARD,KEY",42,2022/04/05 13:12:45+00,,"Washington, DC"
-76.9960254888498,38.8922307844368,28142826,38.89222,-76.99602,7th St & Massachusetts Ave NE,classic,509,active,2022/04/05 12:30:26+00,14,0,5,1,0,Yes,Yes,Yes,Yes,https://dc.lft.to/lastmile_qr_scan,https://dc.lft.to/lastmile_qr_scan,No,No,19,"CREDITCARD,KEY",42,2022/04/05 13:12:45+00,,"Washington, DC"
-76.9834078786338,38.8733571015349,28142827,38.87335,-76.9834,Anacostia Park,classic,510,active,2022/04/05 06:22:20+00,19,0,0,0,0,Yes,Yes,Yes,Yes,https://dc.lft.to/lastmile_qr_scan,https://dc.lft.to/lastmile_qr_scan,No,No,19,"CREDITCARD,KEY",42,2022/04/05 13:12:45+00,,"Washington, DC"
-77.1207809209313,39.0620456516516,28142828,39.062041,-77.120776,Twinbrook Metro,classic,511,active,2022/04/05 04:58:50+00,11,0,3,0,0,Yes,Yes,Yes,Yes,https://dc.lft.to/lastmile_qr_scan,https://dc.lft.to/lastmile_qr_scan,No,No,14,"CREDITCARD,KEY",43,2022/04/05 13:12:45+00,,"Montgomery County, MD (North)"
-77.1128777800582,39.0475415129868,28142829,39.04753,-77.11287,White Flint Metro,classic,512,active,2022/04/05 11:36:21+00,24,0,1,0,0,Yes,Yes,Yes,Yes,https://dc.lft.to/lastmile_qr_scan,https://dc.lft.to/lastmile_qr_scan,No,No,25,"CREDITCARD,KEY",43,2022/04/05 13:12:45+00,,"Montgomery County, MD (North)"
-77.1093335327777,39.049004188511,28142830,39.049,-77.10933,Citadel Ave & McGrath Blvd,classic,513,active,2022/04/05 04:58:59+00,13,0,1,0,0,Yes,Yes,Yes,Yes,https://dc.lft.to/lastmile_qr_scan,https://dc.lft.to/lastmile_qr_scan,No,No,15,"CREDITCARD,KEY",43,2022/04/05 13:12:45+00,,"Montgomery County, MD (North)"
-77.1136784412088,39.049774746315,28142831,39.049765,-77.11368,Rockville Pike & Old Georgetown Rd,classic,514,active,2022/04/05 11:34:34+00,7,0,7,0,1,Yes,Yes,Yes,Yes,https://dc.lft.to/lastmile_qr_scan,https://dc.lft.to/lastmile_qr_scan,No,No,15,"CREDITCARD,KEY",43,2022/04/05 13:12:45+00,,"Montgomery County, MD (North)"
-77.1135061923272,39.0431809831859,28142832,39.04317,-77.1135,Woodglen Dr & Executive Blvd,classic,515,active,2022/04/05 04:59:29+00,10,0,6,0,0,Yes,Yes,Yes,Yes,https://dc.lft.to/lastmile_qr_scan,https://dc.lft.to/lastmile_qr_scan,No,No,16,"CREDITCARD,KEY",43,2022/04/05 13:12:45+00,,"Montgomery County, MD (North)"
-77.1257027179788,39.0487355298894,28142833,39.04873,-77.1257,Executive Blvd & E Jefferson St,classic,516,active,2022/04/05 10:09:59+00,4,0,11,0,0,Yes,Yes,Yes,Yes,https://dc.lft.to/lastmile_qr_scan,https://dc.lft.to/lastmile_qr_scan,No,No,15,"CREDITCARD,KEY",43,2022/04/05 13:12:45+00,,"Montgomery County, MD (North)"
-77.1134567740003,39.0629087440413,28142834,39.0629,-77.113454,Fishers Ln & Rock Creek Mill Rd,classic,517,active,2022/04/05 04:58:50+00,9,0,6,1,0,Yes,Yes,Yes,Yes,https://dc.lft.to/lastmile_qr_scan,https://dc.lft.to/lastmile_qr_scan,No,No,15,"CREDITCARD,KEY",43,2022/04/05 13:12:45+00,,"Montgomery County, MD (North)"
-77.1292390591566,39.0621987668258,28142835,39.06219,-77.129235,Congressional Ln & E Jefferson St,classic,518,active,2022/04/05 04:58:58+00,1,0,14,0,0,Yes,Yes,Yes,Yes,https://dc.lft.to/lastmile_qr_scan,https://dc.lft.to/lastmile_qr_scan,No,No,15,"CREDITCARD,KEY",43,2022/04/05 13:12:45+00,,"Montgomery County, MD (North)"
-77.0007757683106,39.0004833646624,28142836,39.00048,-77.00077,Garland Ave & Walden Rd,classic,519,active,2022/04/05 04:58:58+00,9,0,6,1,0,Yes,Yes,Yes,Yes,https://dc.lft.to/lastmile_qr_scan,https://dc.lft.to/lastmile_qr_scan,No,No,15,"CREDITCARD,KEY",44,2022/04/05 13:12:45+00,,"Montgomery County, MD (South)"
-77.2303392256274,38.9224610678052,28142837,38.92245,-77.23034,Greensboro & Pinnacle Dr,classic,520,active,2022/04/05 04:58:57+00,12,0,1,0,0,Yes,Yes,Yes,Yes,https://dc.lft.to/lastmile_qr_scan,https://dc.lft.to/lastmile_qr_scan,No,No,13,"CREDITCARD,KEY",104,2022/04/05 13:12:45+00,,"Fairfax, VA"
-76.843269477218,38.9083948303417,28142838,38.908391,-76.843263,1301 McCormick Dr / Wayne K. Curry Admin Bldg,classic,521,active,2022/04/05 04:59:00+00,9,0,6,0,0,Yes,Yes,Yes,Yes,https://dc.lft.to/lastmile_qr_scan,https://dc.lft.to/lastmile_qr_scan,No,No,15,"CREDITCARD,KEY",133,2022/04/05 13:12:45+00,,Prince George's County
-76.8446025282984,38.8998206458338,28142839,38.899811,-76.844604,Largo Town Center Metro,classic,522,active,2022/04/05 11:32:18+00,16,0,1,1,0,Yes,Yes,Yes,Yes,https://dc.lft.to/lastmile_qr_scan,https://dc.lft.to/lastmile_qr_scan,No,No,17,"CREDITCARD,KEY",133,2022/04/05 13:12:45+00,,Prince George's County
-76.937354598547,38.9695864342458,28142840,38.969581,-76.937349,Baltimore Ave & Van Buren St / Riverdale Park Station,classic,523,active,2022/04/05 12:53:20+00,11,0,6,0,0,Yes,Yes,Yes,Yes,https://dc.lft.to/lastmile_qr_scan,https://dc.lft.to/lastmile_qr_scan,No,No,17,"CREDITCARD,KEY",133,2022/04/05 13:12:45+00,,Prince George's County
-76.9401359086685,38.9554899705512,28142841,38.95548,-76.940133,Baltimore Ave & Jefferson St,classic,524,active,2022/04/05 12:43:53+00,3,0,12,0,0,Yes,Yes,Yes,Yes,https://dc.lft.to/lastmile_qr_scan,https://dc.lft.to/lastmile_qr_scan,No,No,15,"CREDITCARD,KEY",133,2022/04/05 13:12:45+00,,Prince George's County
-76.9600598634507,38.9362207458781,28142842,38.936213,-76.960054,Perry & 35th St,classic,525,active,2022/04/05 04:58:51+00,4,0,11,0,0,Yes,Yes,Yes,Yes,https://dc.lft.to/lastmile_qr_scan,https://dc.lft.to/lastmile_qr_scan,No,No,15,"CREDITCARD,KEY",133,2022/04/05 13:12:45+00,,Prince George's County
-77.0108226596329,38.8696913573486,28142843,38.869683,-77.010815,Potomac Ave & Half St SW,classic,527,active,2022/04/05 11:24:21+00,13,0,9,0,0,Yes,Yes,Yes,Yes,https://dc.lft.to/lastmile_qr_scan,https://dc.lft.to/lastmile_qr_scan,No,No,23,"CREDITCARD,KEY",42,2022/04/05 13:12:45+00,,"Washington, DC"
-76.8255360002701,38.8899475633723,28142844,38.88994,-76.825535,Largo Rd & Campus Way / Prince Georges's Comm Col,classic,530,active,2022/04/05 04:58:59+00,6,0,9,0,0,Yes,Yes,Yes,Yes,https://dc.lft.to/lastmile_qr_scan,https://dc.lft.to/lastmile_qr_scan,No,No,15,"CREDITCARD,KEY",133,2022/04/05 13:12:45+00,,Prince George's County
-76.9845181507217,38.8550161181832,28142845,38.855004,-76.984512,Stanton Square SE,classic,531,active,2022/04/05 04:33:08+00,16,0,3,0,0,Yes,Yes,Yes,Yes,https://dc.lft.to/lastmile_qr_scan,https://dc.lft.to/lastmile_qr_scan,No,No,19,"CREDITCARD,KEY",42,2022/04/05 13:12:45+00,,"Washington, DC"
-77.0329531203465,38.9319980285758,28142846,38.931991,-77.032956,14th & Newton St NW,classic,532,active,2022/04/05 12:09:09+00,8,0,11,1,0,Yes,Yes,Yes,Yes,https://dc.lft.to/lastmile_qr_scan,https://dc.lft.to/lastmile_qr_scan,No,No,19,"CREDITCARD,KEY",42,2022/04/05 13:12:45+00,,"Washington, DC"
-77.0957899081992,38.9170456333034,28142847,38.917036,-77.095782,48th Pl & MacArthur Blvd NW,classic,533,active,2022/04/05 12:17:07+00,12,0,7,0,0,Yes,Yes,Yes,Yes,https://dc.lft.to/lastmile_qr_scan,https://dc.lft.to/lastmile_qr_scan,No,No,19,"CREDITCARD,KEY",42,2022/04/05 13:12:45+00,,"Washington, DC"
-77.0335128158722,38.9694993195933,28142848,38.969489,-77.033509,14th & Luzon St NW,classic,534,active,2022/04/05 04:33:11+00,16,0,3,0,0,Yes,Yes,Yes,Yes,https://dc.lft.to/lastmile_qr_scan,https://dc.lft.to/lastmile_qr_scan,No,No,19,"CREDITCARD,KEY",42,2022/04/05 13:12:45+00,,"Washington, DC"
-77.0060756741362,38.8768984228325,28142849,38.876893,-77.006072,1st & M St SE,classic,535,active,2022/04/05 13:03:13+00,10,0,9,0,0,Yes,Yes,Yes,Yes,https://dc.lft.to/lastmile_qr_scan,https://dc.lft.to/lastmile_qr_scan,No,No,19,"CREDITCARD,KEY",42,2022/04/05 13:12:45+00,,"Washington, DC"
-77.0160576950065,38.7826418974218,28142850,38.782633,-77.016059,Fleet St & Waterfront St,classic,536,active,2022/04/05 12:47:58+00,13,0,2,1,0,Yes,Yes,Yes,Yes,https://dc.lft.to/lastmile_qr_scan,https://dc.lft.to/lastmile_qr_scan,No,No,15,"CREDITCARD,KEY",133,2022/04/05 13:12:45+00,,Prince George's County
-77.0010268326742,38.7987592412549,28142851,38.798749,-77.00103,Oxon Hill Park & Ride,classic,537,active,2022/04/05 04:58:51+00,12,0,3,0,0,Yes,Yes,Yes,Yes,https://dc.lft.to/lastmile_qr_scan,https://dc.lft.to/lastmile_qr_scan,No,No,15,"CREDITCARD,KEY",133,2022/04/05 13:12:45+00,,Prince George's County
-77.0282472420672,38.9313326459188,28142852,38.931322,-77.028247,11th & Park Rd NW,classic,538,active,2022/04/05 11:32:36+00,14,0,5,0,0,Yes,Yes,Yes,Yes,https://dc.lft.to/lastmile_qr_scan,https://dc.lft.to/lastmile_qr_scan,No,No,19,"CREDITCARD,KEY",42,2022/04/05 13:12:45+00,,"Washington, DC"
-77.0007398462639,38.8767544442732,28142853,38.876751,-77.000736,4th & M St SE,classic,539,active,2022/04/05 12:15:52+00,0,0,18,2,0,Yes,Yes,Yes,Yes,https://dc.lft.to/lastmile_qr_scan,https://dc.lft.to/lastmile_qr_scan,No,No,19,"CREDITCARD,KEY",42,2022/04/05 13:12:45+00,,"Washington, DC"
-77.0215514470697,38.9479723922277,28142854,38.947962,-77.02155,Kansas Ave & Sherman Cr NW,classic,540,active,2022/04/05 12:46:48+00,11,0,8,0,0,Yes,Yes,Yes,Yes,https://dc.lft.to/lastmile_qr_scan,https://dc.lft.to/lastmile_qr_scan,No,No,19,"CREDITCARD,KEY",42,2022/04/05 13:12:45+00,,"Washington, DC"
-77.3354301750091,38.9447185774493,28142855,38.944707,-77.335425,Campus Commons,classic,541,active,2022/04/05 04:58:53+00,8,0,3,0,0,Yes,Yes,Yes,Yes,https://dc.lft.to/lastmile_qr_scan,https://dc.lft.to/lastmile_qr_scan,No,No,11,"CREDITCARD,KEY",104,2022/04/05 13:12:45+00,,"Fairfax, VA"
-77.2266421651678,38.9275580124575,28142856,38.92755,-77.226644,Park Run & Onyx Dr,classic,542,active,2022/04/05 07:43:57+00,10,0,1,1,0,Yes,Yes,Yes,Yes,https://dc.lft.to/lastmile_qr_scan,https://dc.lft.to/lastmile_qr_scan,No,No,11,"CREDITCARD,KEY",104,2022/04/05 13:12:45+00,,"Fairfax, VA"
-77.0213994175869,38.902678594418,28142857,38.902674,-77.021392,7th & K St NW,classic,543,active,2022/04/05 13:09:45+00,3,0,16,0,0,Yes,Yes,Yes,Yes,https://dc.lft.to/lastmile_qr_scan,https://dc.lft.to/lastmile_qr_scan,No,No,19,"CREDITCARD,KEY",42,2022/04/05 13:12:45+00,,"Washington, DC"
-77.0124485842385,38.8762222874837,28142858,38.876211,-77.012443,King Greenleaf Rec Center,classic,544,active,2022/04/05 05:53:14+00,2,0,16,1,1,Yes,Yes,Yes,Yes,https://dc.lft.to/lastmile_qr_scan,https://dc.lft.to/lastmile_qr_scan,No,No,19,"CREDITCARD,KEY",42,2022/04/05 13:12:45+00,,"Washington, DC"
-76.9868126503982,38.9074542372649,28142859,38.907444,-76.986813,Montello Ave & Holbrook Terr NE,classic,545,active,2022/04/05 12:23:14+00,15,0,4,1,0,Yes,Yes,Yes,Yes,https://dc.lft.to/lastmile_qr_scan,https://dc.lft.to/lastmile_qr_scan,No,No,19,"CREDITCARD,KEY",42,2022/04/05 13:12:45+00,,"Washington, DC"
-77.0116222338188,38.8971128095495,28142860,38.897108,-77.011616,New Jersey Ave & F St NW,classic,546,active,2022/04/05 13:10:05+00,13,0,20,3,0,Yes,Yes,Yes,Yes,https://dc.lft.to/lastmile_qr_scan,https://dc.lft.to/lastmile_qr_scan,No,No,33,"CREDITCARD,KEY",42,2022/04/05 13:12:45+00,,"Washington, DC"
-76.9786284283634,38.9019399150148,28142861,38.901935,-76.978627,Maryland Ave & 17th St NE,classic,547,active,2022/04/05 11:54:42+00,10,0,9,0,0,Yes,Yes,Yes,Yes,https://dc.lft.to/lastmile_qr_scan,https://dc.lft.to/lastmile_qr_scan,No,No,19,"CREDITCARD,KEY",42,2022/04/05 13:12:45+00,,"Washington, DC"
-76.9982732248956,38.8929425006527,28142862,38.892934,-76.998273,Massachusetts Ave & 6th St NE,classic,548,active,2022/04/05 12:49:59+00,5,0,12,0,2,Yes,Yes,Yes,Yes,https://dc.lft.to/lastmile_qr_scan,https://dc.lft.to/lastmile_qr_scan,No,No,19,"CREDITCARD,KEY",42,2022/04/05 13:12:45+00,,"Washington, DC"
-77.0518385269794,38.9233972443062,28142863,38.923389,-77.051833,Woodley Park Metro / Calvert St & Connecticut Ave NW,classic,549,active,2022/04/05 13:06:13+00,21,0,2,0,0,Yes,Yes,Yes,Yes,https://dc.lft.to/lastmile_qr_scan,https://dc.lft.to/lastmile_qr_scan,No,No,23,"CREDITCARD,KEY",42,2022/04/05 13:12:45+00,,"Washington, DC"
-77.2081333767029,38.9240071210264,28142864,38.924002,-77.208127,McLean Metro,classic,550,active,2022/04/05 04:58:52+00,11,0,8,0,0,Yes,Yes,Yes,Yes,https://dc.lft.to/lastmile_qr_scan,https://dc.lft.to/lastmile_qr_scan,No,No,19,"CREDITCARD,KEY",104,2022/04/05 13:12:45+00,,"Fairfax, VA"
-76.9832272760669,38.9063097172754,28142865,38.906299,-76.983221,Trinidad Rec Center,classic,551,active,2022/04/05 12:59:15+00,16,0,1,0,1,Yes,Yes,Yes,Yes,https://dc.lft.to/lastmile_qr_scan,https://dc.lft.to/lastmile_qr_scan,No,No,19,"CREDITCARD,KEY",42,2022/04/05 13:12:45+00,,"Washington, DC"
-76.9796325865095,38.8978142651687,28142866,38.897808,-76.979634,Rosedale Rec Center,classic,552,active,2022/04/05 11:36:30+00,17,0,2,0,0,Yes,Yes,Yes,Yes,https://dc.lft.to/lastmile_qr_scan,https://dc.lft.to/lastmile_qr_scan,No,No,19,"CREDITCARD,KEY",42,2022/04/05 13:12:45+00,,"Washington, DC"
-76.9914731022418,38.8859156680802,28142867,38.885908,-76.991476,11th & C St SE,classic,553,active,2022/04/05 12:48:31+00,14,0,5,1,0,Yes,Yes,Yes,Yes,https://dc.lft.to/lastmile_qr_scan,https://dc.lft.to/lastmile_qr_scan,No,No,19,"CREDITCARD,KEY",42,2022/04/05 13:12:45+00,,"Washington, DC"
-77.012807847051,38.9516040127932,28142868,38.951596,-77.012808,New Hampshire & Gallatin St NW,classic,554,active,2022/04/05 04:58:52+00,19,0,0,0,0,Yes,Yes,Yes,Yes,https://dc.lft.to/lastmile_qr_scan,https://dc.lft.to/lastmile_qr_scan,No,No,19,"CREDITCARD,KEY",42,2022/04/05 13:12:45+00,,"Washington, DC"
-76.9831517076957,38.8357468663685,28142869,38.835737,-76.983144,United Medical Center,classic,555,active,2022/04/05 04:58:53+00,6,0,13,1,0,Yes,Yes,Yes,Yes,https://dc.lft.to/lastmile_qr_scan,https://dc.lft.to/lastmile_qr_scan,No,No,19,"CREDITCARD,KEY",42,2022/04/05 13:12:45+00,,"Washington, DC"
-77.0418331900804,38.9112760383946,28142870,38.911268,-77.041829,18th & New Hampshire Ave NW,classic,556,active,2022/04/05 09:59:19+00,3,0,15,0,1,Yes,Yes,Yes,Yes,https://dc.lft.to/lastmile_qr_scan,https://dc.lft.to/lastmile_qr_scan,No,No,19,"CREDITCARD,KEY",42,2022/04/05 13:12:45+00,,"Washington, DC"
-77.2282979970467,38.8828101669474,28142871,38.8828,-77.2283,Dunn Loring Metro,classic,560,active,2022/04/05 04:38:11+00,19,0,0,0,0,Yes,Yes,Yes,Yes,https://dc.lft.to/lastmile_qr_scan,https://dc.lft.to/lastmile_qr_scan,No,No,19,"CREDITCARD,KEY",104,2022/04/05 13:12:45+00,,"Fairfax, VA"
-76.946363064545,38.9593665468769,28142872,38.959361,-76.946361,Oglethorpe St & 42nd Ave,classic,561,active,2022/04/05 04:58:52+00,6,0,9,0,0,Yes,Yes,Yes,Yes,https://dc.lft.to/lastmile_qr_scan,https://dc.lft.to/lastmile_qr_scan,No,No,15,"CREDITCARD,KEY",133,2022/04/05 13:12:45+00,,Prince George's County
-76.9753065610877,38.8401145713039,28142873,38.840107,-76.9753,Southern Ave Metro,classic,562,active,2022/04/05 04:58:52+00,13,0,2,0,0,Yes,Yes,Yes,Yes,https://dc.lft.to/lastmile_qr_scan,https://dc.lft.to/lastmile_qr_scan,No,No,15,"CREDITCARD,KEY",133,2022/04/05 13:12:45+00,,Prince George's County
-76.9595073215722,38.9546064655366,28142874,38.9546,-76.9595,Queens Chapel & Hamilton St,classic,563,active,2022/04/05 04:58:52+00,3,0,12,1,0,Yes,Yes,Yes,Yes,https://dc.lft.to/lastmile_qr_scan,https://dc.lft.to/lastmile_qr_scan,No,No,15,"CREDITCARD,KEY",133,2022/04/05 13:12:45+00,,Prince George's County
-76.9522019017527,38.9755118571134,28142875,38.975505,-76.952199,Northwestern High School,classic,564,active,2022/04/05 08:18:16+00,10,0,5,0,0,Yes,Yes,Yes,Yes,https://dc.lft.to/lastmile_qr_scan,https://dc.lft.to/lastmile_qr_scan,No,No,15,"CREDITCARD,KEY",133,2022/04/05 13:12:45+00,,Prince George's County
-76.9952246446623,38.974215332962,28142876,38.974205,-76.995227,New Hampshire Ave & East-West Hwy,classic,565,active,2022/04/05 04:59:00+00,13,0,1,0,1,Yes,Yes,Yes,Yes,https://dc.lft.to/lastmile_qr_scan,https://dc.lft.to/lastmile_qr_scan,No,No,15,"CREDITCARD,KEY",133,2022/04/05 13:12:45+00,,Prince George's County
-76.9550521548354,38.9392817490191,28142877,38.939271,-76.955047,Rhode Island Ave & 39th St / Brentwood Arts Exchange,classic,566,active,2022/04/05 04:58:52+00,2,0,13,0,0,Yes,Yes,Yes,Yes,https://dc.lft.to/lastmile_qr_scan,https://dc.lft.to/lastmile_qr_scan,No,No,15,"CREDITCARD,KEY",133,2022/04/05 13:12:45+00,,Prince George's County
-76.98070753236,38.9725112830385,28142878,38.9725,-76.9807,Riggs Rd & East West Hwy,classic,567,active,2022/04/05 04:58:52+00,8,0,9,0,0,Yes,Yes,Yes,Yes,https://dc.lft.to/lastmile_qr_scan,https://dc.lft.to/lastmile_qr_scan,No,No,17,"CREDITCARD,KEY",133,2022/04/05 13:12:45+00,,Prince George's County
-77.0026038858076,38.7968043698245,28142879,38.7968,-77.0026,Tanger Outlets,classic,568,active,2022/04/05 04:58:52+00,13,0,2,0,0,Yes,Yes,Yes,Yes,https://dc.lft.to/lastmile_qr_scan,https://dc.lft.to/lastmile_qr_scan,No,No,15,"CREDITCARD,KEY",133,2022/04/05 13:12:45+00,,Prince George's County
-76.9959293087872,38.9617479495514,28142880,38.961737,-76.995922,Chillum Rd & Riggs Rd / Riggs Plaza,classic,569,active,2022/04/05 06:21:03+00,14,0,1,1,0,Yes,Yes,Yes,Yes,https://dc.lft.to/lastmile_qr_scan,https://dc.lft.to/lastmile_qr_scan,No,No,15,"CREDITCARD,KEY",133,2022/04/05 13:12:45+00,,Prince George's County
-76.9492977756373,38.9698084200216,28142881,38.9698,-76.9493,Hyattsville Library / Adelphi Rd & Toledo Rd,classic,570,active,2022/04/05 04:58:52+00,6,0,9,0,0,Yes,Yes,Yes,Yes,https://dc.lft.to/lastmile_qr_scan,https://dc.lft.to/lastmile_qr_scan,No,No,15,"CREDITCARD,KEY",133,2022/04/05 13:12:45+00,,Prince George's County
-77.1926865466366,38.8964229766382,28142882,38.896419,-77.192688,Meridian High School / Haycock Rd & Leesburg Pike,classic,571,active,2022/04/05 04:59:01+00,8,0,3,0,0,Yes,Yes,Yes,Yes,https://dc.lft.to/lastmile_qr_scan,https://dc.lft.to/lastmile_qr_scan,No,No,12,"CREDITCARD,KEY",152,2022/04/05 13:12:45+00,,"Falls Church, VA"
-77.1700367420288,38.8827563762186,28142883,38.882746,-77.170032,State Theatre / Park Pl & N Washington St,classic,572,active,2022/04/05 10:22:22+00,8,0,4,0,0,Yes,Yes,Yes,Yes,https://dc.lft.to/lastmile_qr_scan,https://dc.lft.to/lastmile_qr_scan,No,No,12,"CREDITCARD,KEY",152,2022/04/05 13:12:45+00,,"Falls Church, VA"
-77.1798360087613,38.8883809575412,28142884,38.88837,-77.179832,N Oak St & W Broad St,classic,573,active,2022/04/05 04:33:09+00,3,0,9,0,0,Yes,Yes,Yes,Yes,https://dc.lft.to/lastmile_qr_scan,https://dc.lft.to/lastmile_qr_scan,No,No,12,"CREDITCARD,KEY",152,2022/04/05 13:12:45+00,,"Falls Church, VA"
-77.1769981262879,38.8874123855861,28142885,38.887403,-77.176992,Pennsylvania Ave & Park Ave,classic,574,active,2022/04/05 09:23:26+00,8,0,4,0,0,Yes,Yes,Yes,Yes,https://dc.lft.to/lastmile_qr_scan,https://dc.lft.to/lastmile_qr_scan,No,No,12,"CREDITCARD,KEY",152,2022/04/05 13:12:45+00,,"Falls Church, VA"
-77.1718987114136,38.88061865852,28142886,38.880612,-77.171891,E Fairfax St & S Washington St,classic,575,active,2022/04/05 04:58:53+00,3,0,8,0,0,Yes,Yes,Yes,Yes,https://dc.lft.to/lastmile_qr_scan,https://dc.lft.to/lastmile_qr_scan,No,No,12,"CREDITCARD,KEY",152,2022/04/05 13:12:45+00,,"Falls Church, VA"
-77.1539602366137,38.8780943049492,28142887,38.878085,-77.153953,N Roosevelt St & Roosevelt Blvd,classic,576,active,2022/04/05 12:57:39+00,9,0,3,0,0,Yes,Yes,Yes,Yes,https://dc.lft.to/lastmile_qr_scan,https://dc.lft.to/lastmile_qr_scan,No,No,12,"CREDITCARD,KEY",152,2022/04/05 13:12:45+00,,"Falls Church, VA"
-77.1734388118401,38.8836071720058,28142888,38.883601,-77.173438,W Broad St & Little Falls St,classic,577,active,2022/04/05 04:58:53+00,1,0,11,0,0,Yes,Yes,Yes,Yes,https://dc.lft.to/lastmile_qr_scan,https://dc.lft.to/lastmile_qr_scan,No,No,12,"CREDITCARD,KEY",152,2022/04/05 13:12:45+00,,"Falls Church, VA"
-77.1784081527058,38.8797260720607,28142889,38.87972,-77.178408,S Maple Ave & S Washington St,classic,578,active,2022/04/05 04:59:02+00,0,0,12,0,0,Yes,Yes,Yes,Yes,https://dc.lft.to/lastmile_qr_scan,https://dc.lft.to/lastmile_qr_scan,No,No,12,"CREDITCARD,KEY",152,2022/04/05 13:12:45+00,,"Falls Church, VA"
-77.1736046405826,38.8854446394839,28142890,38.885434,-77.173605,Falls Church City Hall / Park Ave & Little Falls St,classic,579,active,2022/04/05 08:03:11+00,9,0,3,0,0,Yes,Yes,Yes,Yes,https://dc.lft.to/lastmile_qr_scan,https://dc.lft.to/lastmile_qr_scan,No,No,12,"CREDITCARD,KEY",152,2022/04/05 13:12:45+00,,"Falls Church, VA"
-77.1669200630083,38.8856255434811,28142891,38.885621,-77.166917,W Columbia St & N Washington St,classic,580,active,2022/04/05 04:58:52+00,12,0,0,0,0,Yes,Yes,Yes,Yes,https://dc.lft.to/lastmile_qr_scan,https://dc.lft.to/lastmile_qr_scan,No,No,12,"CREDITCARD,KEY",152,2022/04/05 13:12:45+00,,"Falls Church, VA"
-77.019024618773,38.9030483479049,28142892,38.90304,-77.019027,5th & K St NW,classic,31,active,2022/04/05 12:34:34+00,5,0,14,0,0,Yes,Yes,Yes,Yes,https://dc.lft.to/lastmile_qr_scan,https://dc.lft.to/lastmile_qr_scan,No,No,19,"CREDITCARD,KEY",42,2022/04/05 13:12:45+00,,"Washington, DC"
-76.976903144887,38.8896071317799,28142893,38.8896,-76.9769,19th & East Capitol St SE,classic,32,active,2022/04/05 09:09:31+00,9,0,6,1,0,Yes,Yes,Yes,Yes,https://dc.lft.to/lastmile_qr_scan,https://dc.lft.to/lastmile_qr_scan,No,No,15,"CREDITCARD,KEY",42,2022/04/05 13:12:45+00,,"Washington, DC"
-77.0314993906422,38.9308093326729,28142894,38.9308,-77.0315,Park Rd & Holmead Pl NW,classic,33,active,2022/04/05 12:32:58+00,34,0,0,0,0,Yes,Yes,Yes,Yes,https://dc.lft.to/lastmile_qr_scan,https://dc.lft.to/lastmile_qr_scan,No,No,35,"CREDITCARD,KEY",42,2022/04/05 13:12:45+00,,"Washington, DC"
-76.9691809194837,38.8616703037464,28142895,38.861663,-76.969184,Good Hope & Naylor Rd SE,classic,34,active,2022/04/05 04:48:18+00,13,0,6,0,0,Yes,Yes,Yes,Yes,https://dc.lft.to/lastmile_qr_scan,https://dc.lft.to/lastmile_qr_scan,No,No,19,"CREDITCARD,KEY",42,2022/04/05 13:12:45+00,,"Washington, DC"
-77.0575320544835,38.9336370340416,28142896,38.933626,-77.05753,Connecticut Ave & Macomb St NW / Cleveland Park,classic,35,active,2022/04/05 12:41:45+00,10,0,1,0,0,Yes,Yes,Yes,Yes,https://dc.lft.to/lastmile_qr_scan,https://dc.lft.to/lastmile_qr_scan,No,No,11,"CREDITCARD,KEY",42,2022/04/05 13:12:45+00,,"Washington, DC"
-76.9607032505031,38.8780090114729,28142897,38.878,-76.9607,Randle Circle & Minnesota Ave SE,classic,36,active,2022/04/05 04:53:20+00,8,0,3,0,0,Yes,Yes,Yes,Yes,https://dc.lft.to/lastmile_qr_scan,https://dc.lft.to/lastmile_qr_scan,No,No,11,"CREDITCARD,KEY",42,2022/04/05 13:12:45+00,,"Washington, DC"
-76.9474473939697,38.89707454299,28142898,38.897063,-76.947446,Minnesota Ave Metro/DOES,classic,37,active,2022/04/05 08:27:28+00,14,0,1,0,0,Yes,Yes,Yes,Yes,https://dc.lft.to/lastmile_qr_scan,https://dc.lft.to/lastmile_qr_scan,No,No,15,"CREDITCARD,KEY",42,2022/04/05 13:12:45+00,,"Washington, DC"
-76.9418759822002,38.901395918266,28142899,38.901385,-76.941877,Nannie Helen Burroughs & Minnesota Ave NE,classic,38,active,2022/04/05 11:41:27+00,6,0,5,0,0,Yes,Yes,Yes,Yes,https://dc.lft.to/lastmile_qr_scan,https://dc.lft.to/lastmile_qr_scan,No,No,11,"CREDITCARD,KEY",42,2022/04/05 13:12:45+00,,"Washington, DC"
-76.9946444739657,38.8626741823952,28142900,38.862669,-76.994637,Anacostia Metro,classic,39,active,2022/04/05 04:53:29+00,18,0,1,0,0,Yes,Yes,Yes,Yes,https://dc.lft.to/lastmile_qr_scan,https://dc.lft.to/lastmile_qr_scan,No,No,19,"CREDITCARD,KEY",42,2022/04/05 13:12:45+00,,"Washington, DC"
-76.9880414835076,38.8673850940536,28142901,38.867373,-76.988039,Good Hope Rd & MLK Ave SE,classic,40,active,2022/04/05 08:39:31+00,8,0,2,0,1,Yes,Yes,Yes,Yes,https://dc.lft.to/lastmile_qr_scan,https://dc.lft.to/lastmile_qr_scan,No,No,11,"CREDITCARD,KEY",42,2022/04/05 13:12:45+00,,"Washington, DC"
-77.0435989882191,38.8952044856205,28142902,38.8952,-77.0436,19th & E Street NW,classic,41,active,2022/04/05 11:09:25+00,3,0,8,2,0,Yes,Yes,Yes,Yes,https://dc.lft.to/lastmile_qr_scan,https://dc.lft.to/lastmile_qr_scan,No,No,11,"CREDITCARD,KEY",42,2022/04/05 13:12:45+00,,"Washington, DC"
-77.0006480363955,38.9190847446191,28142903,38.919077,-77.000648,4th & W St NE,classic,42,active,2022/04/05 10:27:06+00,12,0,3,0,0,Yes,Yes,Yes,Yes,https://dc.lft.to/lastmile_qr_scan,https://dc.lft.to/lastmile_qr_scan,No,No,15,"CREDITCARD,KEY",42,2022/04/05 13:12:45+00,,"Washington, DC"
-77.0259008588385,38.9172081426925,28142904,38.9172,-77.0259,10th & U St NW,classic,43,active,2022/04/05 13:11:40+00,13,0,2,0,0,Yes,Yes,Yes,Yes,https://dc.lft.to/lastmile_qr_scan,https://dc.lft.to/lastmile_qr_scan,No,No,15,"CREDITCARD,KEY",42,2022/04/05 13:12:45+00,,"Washington, DC"
-77.0222018133699,38.9249110228196,28142905,38.9249,-77.0222,Georgia Ave & Fairmont St NW,classic,44,active,2022/04/05 08:20:20+00,12,0,2,2,0,Yes,Yes,Yes,Yes,https://dc.lft.to/lastmile_qr_scan,https://dc.lft.to/lastmile_qr_scan,No,No,15,"CREDITCARD,KEY",42,2022/04/05 13:12:45+00,,"Washington, DC"
-77.005798860005,38.8741058332167,28142906,38.874102,-77.005794,1st & N St SE,classic,45,active,2022/04/05 11:27:08+00,15,0,22,0,1,Yes,Yes,Yes,Yes,https://dc.lft.to/lastmile_qr_scan,https://dc.lft.to/lastmile_qr_scan,No,No,39,"CREDITCARD,KEY",42,2022/04/05 13:12:45+00,,"Washington, DC"
-77.0446029799029,38.9154098417214,28142907,38.9154,-77.0446,20th St & Florida Ave NW,classic,46,active,2022/04/05 11:14:31+00,10,0,5,0,0,Yes,Yes,Yes,Yes,https://dc.lft.to/lastmile_qr_scan,https://dc.lft.to/lastmile_qr_scan,No,No,15,"CREDITCARD,KEY",42,2022/04/05 13:12:45+00,,"Washington, DC"
-77.0221988853834,38.9155063295879,28142908,38.9155,-77.0222,7th & T St NW,classic,47,active,2022/04/05 13:08:26+00,8,0,5,0,1,Yes,Yes,Yes,Yes,https://dc.lft.to/lastmile_qr_scan,https://dc.lft.to/lastmile_qr_scan,No,No,15,"CREDITCARD,KEY",42,2022/04/05 13:12:45+00,,"Washington, DC"
-77.0534128488241,38.8543923518948,28142909,38.854381,-77.053412,Eads St & 22nd St S,classic,48,active,2022/04/05 09:19:34+00,6,0,8,0,0,Yes,Yes,Yes,Yes,https://dc.lft.to/lastmile_qr_scan,https://dc.lft.to/lastmile_qr_scan,No,No,15,"CREDITCARD,KEY",41,2022/04/05 13:12:45+00,,"Arlington, VA"
-77.0037016039001,38.8763039680311,28142910,38.8763,-77.0037,M St & New Jersey Ave SE,classic,49,active,2022/04/05 11:49:26+00,4,0,13,2,0,Yes,Yes,Yes,Yes,https://dc.lft.to/lastmile_qr_scan,https://dc.lft.to/lastmile_qr_scan,No,No,17,"CREDITCARD,KEY",42,2022/04/05 13:12:45+00,,"Washington, DC"
-77.0444036546191,38.9101040050565,28142911,38.9101,-77.0444,Massachusetts Ave & Dupont Circle NW,classic,51,active,2022/04/05 12:38:50+00,15,0,30,0,0,Yes,Yes,Yes,Yes,https://dc.lft.to/lastmile_qr_scan,https://dc.lft.to/lastmile_qr_scan,No,No,45,"CREDITCARD,KEY",42,2022/04/05 13:12:45+00,,"Washington, DC"
-77.0054901438539,38.9057072323447,28142912,38.905697,-77.005483,1st & M St NE,classic,52,active,2022/04/05 13:09:29+00,9,0,6,1,0,Yes,Yes,Yes,Yes,https://dc.lft.to/lastmile_qr_scan,https://dc.lft.to/lastmile_qr_scan,No,No,15,"CREDITCARD,KEY",42,2022/04/05 13:12:45+00,,"Washington, DC"
-77.0473177902061,38.9057157953933,28142913,38.905711,-77.047318,New Hampshire Ave & Ward Pl NW,classic,53,active,2022/04/05 13:09:26+00,8,0,11,0,0,Yes,Yes,Yes,Yes,https://dc.lft.to/lastmile_qr_scan,https://dc.lft.to/lastmile_qr_scan,No,No,19,"CREDITCARD,KEY",42,2022/04/05 13:12:45+00,,"Washington, DC"
-77.0386347638972,38.9027642493453,28142914,38.90276,-77.03863,17th & K St NW,classic,54,active,2022/04/05 12:51:20+00,0,0,19,1,4,Yes,Yes,Yes,Yes,https://dc.lft.to/lastmile_qr_scan,https://dc.lft.to/lastmile_qr_scan,No,No,23,"CREDITCARD,KEY",42,2022/04/05 13:12:45+00,,"Washington, DC"
-77.0152885457645,38.8994185281761,28142915,38.899408,-77.015289,3rd & H St NW,classic,55,active,2022/04/05 11:57:46+00,2,0,13,0,0,Yes,Yes,Yes,Yes,https://dc.lft.to/lastmile_qr_scan,https://dc.lft.to/lastmile_qr_scan,No,No,15,"CREDITCARD,KEY",42,2022/04/05 13:12:45+00,,"Washington, DC"
-77.0023074403427,38.8851052018401,28142916,38.8851,-77.0023,3rd & D St SE,classic,56,active,2022/04/05 12:50:34+00,7,0,4,0,0,Yes,Yes,Yes,Yes,https://dc.lft.to/lastmile_qr_scan,https://dc.lft.to/lastmile_qr_scan,No,No,11,"CREDITCARD,KEY",42,2022/04/05 13:12:45+00,,"Washington, DC"
-76.9862068401411,38.8803119481271,28142917,38.8803,-76.9862,Potomac & Pennsylvania Ave SE,classic,57,active,2022/04/05 12:42:41+00,3,0,11,0,0,Yes,Yes,Yes,Yes,https://dc.lft.to/lastmile_qr_scan,https://dc.lft.to/lastmile_qr_scan,No,No,15,"CREDITCARD,KEY",42,2022/04/05 13:12:45+00,,"Washington, DC"
-76.9879120997594,38.8829245700143,28142918,38.882915,-76.987907,13th & E St SE,classic,58,active,2022/04/05 12:46:06+00,13,0,1,0,0,Yes,Yes,Yes,Yes,https://dc.lft.to/lastmile_qr_scan,https://dc.lft.to/lastmile_qr_scan,No,No,15,"CREDITCARD,KEY",42,2022/04/05 13:12:45+00,,"Washington, DC"
-77.0386974752182,38.9121058865229,28142919,38.9121,-77.0387,17th & Corcoran St NW,classic,59,active,2022/04/05 12:52:54+00,18,0,1,0,0,Yes,Yes,Yes,Yes,https://dc.lft.to/lastmile_qr_scan,https://dc.lft.to/lastmile_qr_scan,No,No,19,"CREDITCARD,KEY",42,2022/04/05 13:12:45+00,,"Washington, DC"
-77.0638968778675,38.9445607922833,28142920,38.944551,-77.063896,Van Ness Metro / UDC,classic,60,active,2022/04/05 12:48:39+00,11,0,3,0,1,Yes,Yes,Yes,Yes,https://dc.lft.to/lastmile_qr_scan,https://dc.lft.to/lastmile_qr_scan,No,No,15,"CREDITCARD,KEY",42,2022/04/05 13:12:45+00,,"Washington, DC"
-77.0135041870932,38.9126069734069,28142921,38.9126,-77.0135,Florida Ave & R St NW,classic,61,active,2022/04/05 12:50:11+00,13,0,1,0,1,Yes,Yes,Yes,Yes,https://dc.lft.to/lastmile_qr_scan,https://dc.lft.to/lastmile_qr_scan,No,No,15,"CREDITCARD,KEY",42,2022/04/05 13:12:45+00,,"Washington, DC"
-76.9953001493936,38.8792046356292,28142922,38.8792,-76.9953,8th & Eye St SE / Barracks Row,classic,62,active,2022/04/05 12:54:43+00,2,0,9,1,0,Yes,Yes,Yes,Yes,https://dc.lft.to/lastmile_qr_scan,https://dc.lft.to/lastmile_qr_scan,No,No,11,"CREDITCARD,KEY",42,2022/04/05 13:12:45+00,,"Washington, DC"
-77.0871682131473,38.938744413431,28142923,38.938736,-77.087171,Ward Circle / American University,classic,63,active,2022/04/05 09:43:48+00,13,0,2,2,0,Yes,Yes,Yes,Yes,https://dc.lft.to/lastmile_qr_scan,https://dc.lft.to/lastmile_qr_scan,No,No,15,"CREDITCARD,KEY",42,2022/04/05 13:12:45+00,,"Washington, DC"
-77.0727577332246,38.9348897103584,28142924,38.934881,-77.072755,Wisconsin Ave & Newark St NW,classic,64,active,2022/04/05 10:54:01+00,13,0,6,1,0,Yes,Yes,Yes,Yes,https://dc.lft.to/lastmile_qr_scan,https://dc.lft.to/lastmile_qr_scan,No,No,19,"CREDITCARD,KEY",42,2022/04/05 13:12:45+00,,"Washington, DC"
-77.0328219854473,38.9477805970972,28142925,38.947774,-77.032818,14th St Heights / 14th & Crittenden St NW,classic,65,active,2022/04/05 12:50:05+00,9,0,2,0,0,Yes,Yes,Yes,Yes,https://dc.lft.to/lastmile_qr_scan,https://dc.lft.to/lastmile_qr_scan,No,No,11,"CREDITCARD,KEY",42,2022/04/05 13:12:45+00,,"Washington, DC"
-76.9783972766365,38.8657892191988,28142926,38.865784,-76.9784,Anacostia Library,classic,66,active,2022/04/05 07:56:02+00,11,0,0,0,0,Yes,Yes,Yes,Yes,https://dc.lft.to/lastmile_qr_scan,https://dc.lft.to/lastmile_qr_scan,No,No,11,"CREDITCARD,KEY",42,2022/04/05 13:12:45+00,,"Washington, DC"
-76.971019813343,38.8730664156896,28142927,38.873057,-76.971015,Pennsylvania & Minnesota Ave SE,classic,67,active,2022/04/05 08:54:55+00,5,0,6,1,0,Yes,Yes,Yes,Yes,https://dc.lft.to/lastmile_qr_scan,https://dc.lft.to/lastmile_qr_scan,No,No,11,"CREDITCARD,KEY",42,2022/04/05 13:12:45+00,,"Washington, DC"
-76.9968095562695,38.8869609079637,28142928,38.886952,-76.996806,Eastern Market / 7th & North Carolina Ave SE,classic,68,active,2022/04/05 13:05:01+00,1,0,14,2,0,Yes,Yes,Yes,Yes,https://dc.lft.to/lastmile_qr_scan,https://dc.lft.to/lastmile_qr_scan,No,No,15,"CREDITCARD,KEY",42,2022/04/05 13:12:45+00,,"Washington, DC"
-77.0316931329347,38.8996404382794,28142929,38.899632,-77.031686,14th St & New York Ave NW,classic,69,active,2022/04/05 11:25:01+00,0,0,23,0,0,Yes,Yes,Yes,Yes,https://dc.lft.to/lastmile_qr_scan,https://dc.lft.to/lastmile_qr_scan,No,No,23,"CREDITCARD,KEY",42,2022/04/05 13:12:45+00,,"Washington, DC"
-76.9479799024819,38.8940119358908,28142930,38.894,-76.947974,Benning Branch Library,classic,70,active,2022/04/05 08:56:51+00,4,0,7,0,0,Yes,Yes,Yes,Yes,https://dc.lft.to/lastmile_qr_scan,https://dc.lft.to/lastmile_qr_scan,No,No,11,"CREDITCARD,KEY",42,2022/04/05 13:12:45+00,,"Washington, DC"
-77.0282409308572,38.8862819082222,28142931,38.886277,-77.028242,USDA / 12th & C St SW,classic,71,active,2022/04/05 13:07:37+00,21,0,18,0,0,Yes,Yes,Yes,Yes,https://dc.lft.to/lastmile_qr_scan,https://dc.lft.to/lastmile_qr_scan,No,No,39,"CREDITCARD,KEY",42,2022/04/05 13:12:45+00,,"Washington, DC"
-77.0591438551886,38.9023232653376,28142932,38.902314,-77.059142,Georgetown Harbor / 30th St NW,classic,72,active,2022/04/05 12:45:04+00,1,0,18,1,0,Yes,Yes,Yes,Yes,https://dc.lft.to/lastmile_qr_scan,https://dc.lft.to/lastmile_qr_scan,No,No,19,"CREDITCARD,KEY",42,2022/04/05 13:12:45+00,,"Washington, DC"
-76.9910175797516,38.9336778745621,28142933,38.933668,-76.991016,12th & Newton St NE,classic,73,active,2022/04/05 08:56:55+00,3,0,8,0,0,Yes,Yes,Yes,Yes,https://dc.lft.to/lastmile_qr_scan,https://dc.lft.to/lastmile_qr_scan,No,No,11,"CREDITCARD,KEY",42,2022/04/05 13:12:45+00,,"Washington, DC"
-77.0465844073074,38.8949240737255,28142934,38.894919,-77.046587,US Dept of State / Virginia Ave & 21st St NW,classic,74,active,2022/04/05 12:30:53+00,3,0,12,5,0,Yes,Yes,Yes,Yes,https://dc.lft.to/lastmile_qr_scan,https://dc.lft.to/lastmile_qr_scan,No,No,15,"CREDITCARD,KEY",42,2022/04/05 13:12:45+00,,"Washington, DC"
